City,Cloudiness,Country,Date,Humidity,Lat,Lng,Max Temp,Wind Speed,Analysis Date
Orán,90,AR,2020-03-15 18:32:03,81,-23.13,-64.33,81.0,1.99,2020-03-15
Albany,1,US,2020-03-15 18:29:18,24,42.6,-73.97,46.0,6.82,2020-03-15
Flin Flon,75,CA,2020-03-15 18:32:03,61,54.77,-101.86,14.0,9.17,2020-03-15
Marovoay,40,MG,2020-03-15 18:32:04,74,-16.1,46.63,82.4,9.17,2020-03-15
Havelock,90,US,2020-03-15 18:32:04,87,34.88,-76.9,52.0,13.87,2020-03-15
Tuktoyaktuk,90,CA,2020-03-15 18:28:57,77,69.45,-133.04,-2.2,20.8,2020-03-15
Ushuaia,40,AR,2020-03-15 18:32:04,52,-54.8,-68.3,64.4,8.05,2020-03-15
Kapaa,40,US,2020-03-15 18:29:20,73,22.08,-159.32,75.2,10.29,2020-03-15
Rikitea,76,PF,2020-03-15 18:30:21,81,-23.12,-134.97,77.88,12.77,2020-03-15
Jamestown,1,US,2020-03-15 18:32:05,38,42.1,-79.24,44.01,10.29,2020-03-15
Nishihara,20,JP,2020-03-15 18:32:05,59,26.18,127.76,60.8,14.99,2020-03-15
Ujiie,20,JP,2020-03-15 18:32:05,75,36.68,139.97,41.0,3.36,2020-03-15
Borzya,100,RU,2020-03-15 18:32:05,92,50.38,116.52,13.8,3.42,2020-03-15
Port Alfred,90,ZA,2020-03-15 18:32:06,98,-33.59,26.89,63.0,1.01,2020-03-15
Lianzhou,61,CN,2020-03-15 18:32:06,79,24.78,112.38,60.24,1.1,2020-03-15
Dali,51,CN,2020-03-15 18:32:06,60,25.7,100.18,49.98,2.8,2020-03-15
Sitka,1,US,2020-03-15 18:32:06,80,57.05,-135.33,33.8,3.15,2020-03-15
Khatanga,100,RU,2020-03-15 18:32:06,90,71.97,102.5,-16.26,8.81,2020-03-15
Touros,75,BR,2020-03-15 18:30:40,78,-5.2,-35.46,82.4,11.41,2020-03-15
Luangwa,17,ZM,2020-03-15 18:32:07,68,-15.62,30.42,76.62,2.44,2020-03-15
Oktyabr'skiy,98,RU,2020-03-15 18:32:07,97,54.48,53.47,32.52,7.38,2020-03-15
Longyearbyen,40,SJ,2020-03-15 18:29:05,69,78.22,15.64,-9.4,4.7,2020-03-15
Kitui,100,KE,2020-03-15 18:32:07,89,-1.37,38.01,71.94,4.0,2020-03-15
Lebu,0,CL,2020-03-15 18:32:07,40,-37.62,-73.65,67.98,10.67,2020-03-15
Faanui,4,PF,2020-03-15 18:29:36,77,-16.48,-151.75,82.56,13.94,2020-03-15
Hilo,90,US,2020-03-15 18:32:08,73,19.73,-155.09,73.4,4.7,2020-03-15
Bredasdorp,100,ZA,2020-03-15 18:28:49,55,-34.53,20.04,66.2,12.75,2020-03-15
Norman Wells,75,CA,2020-03-15 18:27:32,61,65.28,-126.83,17.6,18.34,2020-03-15
Westport,1,US,2020-03-15 18:32:08,27,41.14,-73.36,53.01,8.05,2020-03-15
Puerto Ayora,20,EC,2020-03-15 18:32:08,70,-0.74,-90.35,86.0,11.41,2020-03-15
Sarāhan,12,IN,2020-03-15 18:32:09,54,31.52,77.8,16.5,11.7,2020-03-15
Tasiilaq,100,GL,2020-03-15 18:32:09,42,65.61,-37.64,8.6,21.92,2020-03-15
Wāris Alīganj,99,IN,2020-03-15 18:32:03,50,25.02,85.63,72.66,3.8,2020-03-15
Mataura,68,NZ,2020-03-15 18:27:39,92,-46.19,168.86,53.01,10.0,2020-03-15
Pevek,96,RU,2020-03-15 18:29:44,94,69.7,170.31,8.76,13.13,2020-03-15
Isla Vista,75,US,2020-03-15 18:22:50,76,34.41,-119.86,59.0,8.05,2020-03-15
Mayo,40,US,2020-03-15 18:22:49,66,38.89,-76.51,51.01,8.05,2020-03-15
Jinji,88,CN,2020-03-15 18:32:10,64,23.23,110.83,65.82,4.81,2020-03-15
Souillac,40,MU,2020-03-15 18:29:52,83,-20.52,57.52,77.0,5.01,2020-03-15
Bairiki Village,20,KI,2020-03-15 18:32:10,83,1.33,172.98,82.4,11.41,2020-03-15
Sabla,100,NG,2020-03-15 18:32:10,9,12.75,4.71,88.68,7.81,2020-03-15
Atuona,17,PF,2020-03-15 18:32:10,67,-9.8,-139.03,81.84,9.04,2020-03-15
Fort Nelson,75,CA,2020-03-15 18:32:11,52,58.81,-122.7,17.6,4.7,2020-03-15
George Town,20,MY,2020-03-15 18:32:11,88,5.41,100.34,80.6,2.24,2020-03-15
Vaini,90,TO,2020-03-15 18:32:11,94,-21.2,-175.2,77.0,6.93,2020-03-15
São João da Barra,8,BR,2020-03-15 18:22:34,58,-21.64,-41.05,87.8,16.11,2020-03-15
Ushtobe,0,KZ,2020-03-15 18:29:29,42,45.25,77.98,47.46,7.25,2020-03-15
Butaritari,0,KI,2020-03-15 18:29:26,81,3.07,172.79,83.64,17.92,2020-03-15
Qaanaaq,100,GL,2020-03-15 18:32:12,64,77.48,-69.36,-12.3,2.39,2020-03-15
Hermanus,26,ZA,2020-03-15 18:32:12,77,-34.42,19.23,64.99,7.0,2020-03-15
Saint-Philippe,100,RE,2020-03-15 18:32:12,78,-21.36,55.77,78.8,13.87,2020-03-15
Emerald,0,AU,2020-03-15 18:32:12,72,-23.53,148.17,69.01,9.17,2020-03-15
Inírida,32,CO,2020-03-15 18:32:12,47,3.87,-67.92,94.44,2.82,2020-03-15
Barrow,1,US,2020-03-15 18:32:13,69,71.29,-156.79,-7.6,13.87,2020-03-15
Port Hardy,5,CA,2020-03-15 18:29:52,44,50.7,-127.42,37.4,14.99,2020-03-15
Cape Town,20,ZA,2020-03-15 18:30:03,68,-33.93,18.42,64.99,29.97,2020-03-15
Port Blair,16,IN,2020-03-15 18:31:55,73,11.67,92.75,82.74,11.61,2020-03-15
Ust'-Ilimsk,98,RU,2020-03-15 18:32:14,91,58.0,102.66,29.46,13.24,2020-03-15
Gazli,99,UZ,2020-03-15 18:32:14,27,40.13,63.45,65.64,10.11,2020-03-15
Krasnyy Kholm,29,RU,2020-03-15 18:32:14,61,58.06,37.12,26.4,6.24,2020-03-15
Killam,18,CA,2020-03-15 18:32:14,67,52.78,-111.85,1.99,1.99,2020-03-15
Bethel,1,US,2020-03-15 18:30:23,20,41.37,-73.41,52.0,11.41,2020-03-15
Airai,82,TL,2020-03-15 18:29:46,79,-8.93,125.41,66.0,3.04,2020-03-15
Mahajanga,40,MG,2020-03-15 18:29:47,74,-15.72,46.32,82.4,9.17,2020-03-15
Codrington,0,AU,2020-03-15 18:32:15,78,-38.27,141.97,58.62,14.36,2020-03-15
Plettenberg Bay,100,ZA,2020-03-15 18:31:00,89,-34.05,23.37,61.68,1.72,2020-03-15
North Bend,1,US,2020-03-15 18:32:15,61,43.41,-124.22,46.4,4.7,2020-03-15
Kutum,30,SD,2020-03-15 18:32:15,20,14.2,24.67,68.52,4.12,2020-03-15
Punta Arenas,75,CL,2020-03-15 18:27:38,63,-53.15,-70.92,62.6,34.45,2020-03-15
Avarua,77,CK,2020-03-15 18:32:16,94,-21.21,-159.78,80.6,1.12,2020-03-15
Santa Fe,100,AR,2020-03-15 18:32:16,82,-31.63,-60.7,72.0,3.0,2020-03-15
Matadi,81,CD,2020-03-15 18:22:40,90,-5.82,13.45,77.7,7.05,2020-03-15
Samarai,98,PG,2020-03-15 18:32:13,84,-10.62,150.67,75.18,4.05,2020-03-15
Saint Paul Harbor,1,US,2020-03-15 18:32:16,79,57.79,-152.41,21.2,6.93,2020-03-15
Esperance,27,AU,2020-03-15 18:32:17,77,-33.87,121.9,69.8,8.05,2020-03-15
Bushenyi,96,UG,2020-03-15 18:32:17,75,-0.59,30.21,70.14,4.83,2020-03-15
Asău,0,RO,2020-03-15 18:29:54,46,46.43,26.4,32.0,4.7,2020-03-15
Antalaha,100,MG,2020-03-15 18:22:51,75,-14.9,50.28,82.56,20.54,2020-03-15
Little Current,1,CA,2020-03-15 18:32:17,45,45.98,-81.92,28.0,8.05,2020-03-15
Busselton,42,AU,2020-03-15 18:32:17,73,-33.65,115.33,63.0,9.8,2020-03-15
Valparaíso,0,CL,2020-03-15 18:32:18,56,-33.04,-71.63,68.0,8.05,2020-03-15
Honningsvåg,89,NO,2020-03-15 18:32:18,58,70.98,25.97,28.4,6.93,2020-03-15
Orzhytsya,57,UA,2020-03-15 18:32:18,54,49.79,32.7,31.44,10.22,2020-03-15
Bengkulu,93,ID,2020-03-15 18:32:18,88,-3.8,102.27,75.36,3.31,2020-03-15
Yellowknife,20,CA,2020-03-15 18:29:13,63,62.46,-114.35,26.6,18.34,2020-03-15
Imeni Poliny Osipenko,1,RU,2020-03-15 18:32:18,87,52.42,136.49,-0.96,1.39,2020-03-15
Severo-Kuril'sk,100,RU,2020-03-15 18:32:19,98,50.68,156.12,30.72,12.82,2020-03-15
Pangnirtung,75,CA,2020-03-15 18:29:25,61,66.15,-65.71,-20.2,2.77,2020-03-15
Los Llanos de Aridane,20,ES,2020-03-15 18:32:19,63,28.66,-17.92,66.2,19.46,2020-03-15
Mar del Plata,75,AR,2020-03-15 18:29:22,63,-38.0,-57.56,66.2,11.41,2020-03-15
Mahébourg,40,MU,2020-03-15 18:28:47,83,-20.41,57.7,77.0,5.01,2020-03-15
Bathsheba,75,BB,2020-03-15 18:32:19,69,13.22,-59.52,82.4,10.29,2020-03-15
Upernavik,0,GL,2020-03-15 18:32:20,74,72.79,-56.15,-18.6,3.8,2020-03-15
Kaitangata,90,NZ,2020-03-15 18:32:20,89,-46.28,169.85,52.0,22.93,2020-03-15
Baruun-Urt,33,MN,2020-03-15 18:22:52,85,46.68,113.28,21.9,12.95,2020-03-15
Terney,0,RU,2020-03-15 18:32:20,72,45.05,136.61,12.9,10.4,2020-03-15
Nanortalik,100,GL,2020-03-15 18:28:56,73,60.14,-45.24,24.78,15.64,2020-03-15
Ahipara,99,NZ,2020-03-15 18:32:21,76,-35.17,173.17,63.48,7.58,2020-03-15
Ostrovnoy,100,RU,2020-03-15 18:22:50,89,68.05,39.51,25.5,24.23,2020-03-15
Cabo San Lucas,75,MX,2020-03-15 18:32:21,60,22.89,-109.91,78.01,3.36,2020-03-15
Carnarvon,90,AU,2020-03-15 18:27:33,83,-24.87,113.63,77.0,11.41,2020-03-15
Cherskiy,98,RU,2020-03-15 18:32:21,97,68.75,161.3,-2.22,4.79,2020-03-15
Alyangula,0,AU,2020-03-15 18:32:11,94,-13.85,136.42,69.8,2.08,2020-03-15
Nikolskoye,30,RU,2020-03-15 18:32:22,59,59.7,30.79,35.01,11.18,2020-03-15
Porto Walter,100,BR,2020-03-15 18:32:22,51,-8.27,-72.74,92.1,3.09,2020-03-15
Trastenik,90,BG,2020-03-15 18:32:22,74,43.52,24.47,35.6,6.93,2020-03-15
Alice Springs,0,AU,2020-03-15 18:30:58,36,-23.7,133.88,64.4,2.24,2020-03-15
Rawson,17,AR,2020-03-15 18:20:37,51,-43.3,-65.1,65.64,15.5,2020-03-15
Gamba,99,GA,2020-03-15 18:32:22,86,-2.65,10.0,80.04,6.71,2020-03-15
Kambove,97,CD,2020-03-15 18:29:49,94,-10.88,26.6,65.64,1.9,2020-03-15
Clyde River,75,CA,2020-03-15 18:32:23,75,70.47,-68.59,-18.4,12.75,2020-03-15
New Norfolk,90,AU,2020-03-15 18:32:23,71,-42.78,147.06,53.6,1.12,2020-03-15
Darhan,33,MN,2020-03-15 18:31:20,77,49.49,105.92,24.78,7.52,2020-03-15
Petropavlovsk-Kamchatskiy,90,RU,2020-03-15 18:18:49,93,53.05,158.65,35.6,26.84,2020-03-15
Pinillos,58,CO,2020-03-15 18:32:24,30,8.92,-74.47,103.08,2.24,2020-03-15
Sisimiut,0,GL,2020-03-15 18:29:19,75,66.94,-53.67,-5.46,3.98,2020-03-15
Hithadhoo,34,MV,2020-03-15 18:32:24,57,-0.6,73.08,84.18,3.85,2020-03-15
Coahuayana Viejo,40,MX,2020-03-15 18:32:24,83,18.73,-103.68,77.0,5.86,2020-03-15
Esim,99,GH,2020-03-15 18:32:25,75,4.87,-2.24,83.1,7.31,2020-03-15
Córdoba,75,AR,2020-03-15 18:32:16,100,-31.41,-64.18,62.01,5.82,2020-03-15
Jiuquan,100,CN,2020-03-15 18:32:25,36,39.74,98.52,31.62,0.89,2020-03-15
Dikson,100,RU,2020-03-15 18:32:25,98,73.51,80.55,-6.72,3.13,2020-03-15
Portland,40,US,2020-03-15 18:31:03,48,45.52,-122.68,43.0,24.16,2020-03-15
Laela,100,TZ,2020-03-15 18:32:26,92,-8.57,32.05,64.56,1.14,2020-03-15
Naryan-Mar,100,RU,2020-03-15 18:32:26,87,67.67,53.09,13.8,18.45,2020-03-15
Pitimbu,90,BR,2020-03-15 18:32:26,94,-7.47,-34.81,77.0,10.29,2020-03-15
Salym,100,RU,2020-03-15 18:29:50,97,60.06,71.48,31.26,12.03,2020-03-15
Pinkafeld,0,AT,2020-03-15 18:32:26,47,47.37,16.12,41.0,4.7,2020-03-15
Sobolevo,0,RU,2020-03-15 18:32:26,57,54.43,31.9,26.94,7.07,2020-03-15
Saskylakh,100,RU,2020-03-15 18:32:27,96,71.92,114.08,20.1,5.41,2020-03-15
Castro,3,BR,2020-03-15 18:32:27,42,-24.79,-50.01,84.9,4.85,2020-03-15
Takaungu,96,KE,2020-03-15 18:32:27,78,-3.68,39.86,84.18,11.54,2020-03-15
Zhigansk,100,RU,2020-03-15 18:32:27,92,66.77,123.37,0.12,26.78,2020-03-15
Kapoeta,90,SS,2020-03-15 18:32:27,47,4.77,33.59,87.24,1.88,2020-03-15
Yozgat Province,100,TR,2020-03-15 18:32:27,80,39.58,35.33,49.8,9.62,2020-03-15
Berlevåg,20,NO,2020-03-15 18:29:57,46,70.86,29.09,28.4,11.41,2020-03-15
Zhezkazgan,100,KZ,2020-03-15 18:30:42,74,47.8,67.71,36.66,2.95,2020-03-15
Bandarbeyla,0,SO,2020-03-15 18:32:28,77,9.49,50.81,79.68,12.17,2020-03-15
Camacha,40,PT,2020-03-15 18:32:21,67,33.08,-16.33,62.6,17.22,2020-03-15
Shimanovsk,99,RU,2020-03-15 18:32:28,88,52.0,127.7,9.48,3.91,2020-03-15
Bambous Virieux,40,MU,2020-03-15 18:32:29,83,-20.34,57.76,77.0,9.86,2020-03-15
Seddon,0,AU,2020-03-15 18:32:29,93,-37.81,144.89,55.99,2.24,2020-03-15
Sola,88,VU,2020-03-15 18:32:29,78,-13.88,167.55,85.62,23.87,2020-03-15
Kidal,64,ML,2020-03-15 18:32:29,14,18.44,1.41,84.0,2.91,2020-03-15
Launceston,40,AU,2020-03-15 18:32:30,81,-41.45,147.17,52.0,6.93,2020-03-15
Hambantota,0,LK,2020-03-15 18:32:30,80,6.12,81.12,80.76,14.7,2020-03-15
Port Elizabeth,40,ZA,2020-03-15 18:30:05,93,-33.92,25.57,62.6,3.36,2020-03-15
Haines Junction,41,CA,2020-03-15 18:28:44,86,60.75,-137.51,18.12,3.69,2020-03-15
Baculin,16,PH,2020-03-15 18:32:30,92,7.45,126.58,69.78,5.26,2020-03-15
Kieta,100,PG,2020-03-15 18:32:30,80,-6.22,155.63,81.66,6.11,2020-03-15
Sørland,40,NO,2020-03-15 18:32:30,52,67.67,12.69,32.0,16.11,2020-03-15
Ilulissat,20,GL,2020-03-15 18:32:31,39,69.22,-51.1,-5.8,10.29,2020-03-15
Hobart,90,AU,2020-03-15 18:28:06,71,-42.88,147.33,53.6,1.12,2020-03-15
Ixtapa,40,MX,2020-03-15 18:31:16,61,20.7,-105.2,80.6,8.05,2020-03-15
Korla,91,CN,2020-03-15 18:32:31,60,41.76,86.15,45.0,3.0,2020-03-15
Cocula,5,MX,2020-03-15 18:32:31,28,20.37,-103.82,88.0,5.82,2020-03-15
Chiredzi,43,ZW,2020-03-15 18:32:32,48,-21.05,31.67,81.12,4.59,2020-03-15
Kruisfontein,100,ZA,2020-03-15 18:32:32,90,-34.0,24.73,60.96,6.53,2020-03-15
Martinez,40,US,2020-03-15 18:32:32,76,38.02,-122.13,53.01,10.29,2020-03-15
Talnakh,20,RU,2020-03-15 18:32:32,75,69.49,88.4,-14.8,6.71,2020-03-15
Atar,0,MR,2020-03-15 18:32:15,16,20.52,-13.05,91.4,9.17,2020-03-15
Simao,77,CN,2020-03-15 18:32:32,44,22.79,100.97,64.56,2.89,2020-03-15
Cockburn Town,40,TC,2020-03-15 18:32:33,61,21.46,-71.14,78.8,13.87,2020-03-15
Autazes,81,BR,2020-03-15 18:32:33,90,-3.58,-59.13,82.2,4.32,2020-03-15
Geraldton,72,AU,2020-03-15 18:32:33,88,-28.77,114.6,66.2,4.7,2020-03-15
Kloulklubed,75,PW,2020-03-15 18:29:25,88,7.04,134.26,77.0,4.7,2020-03-15
Lata,75,PT,2020-03-15 18:30:48,81,40.16,-8.33,53.01,14.99,2020-03-15
Baley,100,RU,2020-03-15 18:32:34,95,51.6,116.63,15.78,5.66,2020-03-15
Yagodnoye,93,RU,2020-03-15 18:32:34,87,62.55,149.67,-13.56,4.05,2020-03-15
Coos Bay,1,US,2020-03-15 18:32:34,61,43.37,-124.22,46.4,4.7,2020-03-15
Cairns,40,AU,2020-03-15 18:32:34,94,-16.92,145.77,69.8,7.85,2020-03-15
Igbon,1,PH,2020-03-15 18:32:34,77,11.21,123.17,78.6,18.86,2020-03-15
East London,20,ZA,2020-03-15 18:27:47,88,-33.02,27.91,68.0,8.05,2020-03-15
Cayenne,40,GF,2020-03-15 18:30:04,62,4.93,-52.33,87.8,12.75,2020-03-15
Bilma,0,NE,2020-03-15 18:32:35,11,18.69,12.92,68.88,1.41,2020-03-15
Kerman,20,IR,2020-03-15 18:32:35,87,30.28,57.08,48.2,2.24,2020-03-15
Bluff,76,NZ,2020-03-15 18:29:56,92,-46.6,168.33,53.01,10.0,2020-03-15
Vao,41,NC,2020-03-15 18:32:36,72,-22.67,167.48,84.0,45.79,2020-03-15
Pozo Colorado,62,PY,2020-03-15 18:32:36,15,-23.49,-58.8,110.64,3.6,2020-03-15
Makassar,20,ID,2020-03-15 18:32:36,94,-5.14,119.42,77.0,5.82,2020-03-15
Babu,91,CN,2020-03-15 18:32:36,74,24.42,111.52,61.68,1.23,2020-03-15
Manjacaze,0,MZ,2020-03-15 18:32:36,88,-24.71,33.88,73.92,5.3,2020-03-15
Rabo de Peixe,20,PT,2020-03-15 18:32:36,63,37.8,-25.58,62.6,8.05,2020-03-15
San Patricio,20,MX,2020-03-15 18:29:28,79,19.22,-104.7,86.0,11.41,2020-03-15
Erzurum Province,75,TR,2020-03-15 18:32:37,70,40.0,41.5,42.8,8.05,2020-03-15
Prestea,95,GH,2020-03-15 18:32:37,77,5.43,-2.14,82.92,7.78,2020-03-15
Constitución,0,CL,2020-03-15 18:31:50,47,-35.33,-72.42,66.54,11.92,2020-03-15
Hobyo,59,SO,2020-03-15 18:32:37,76,5.35,48.53,81.3,13.11,2020-03-15
Camaná,99,PE,2020-03-15 18:32:38,76,-16.62,-72.71,71.4,10.65,2020-03-15
Novyy Urgal,87,RU,2020-03-15 18:32:38,92,51.07,132.56,-0.6,0.94,2020-03-15
Ginda,49,IN,2020-03-15 18:32:38,74,30.69,78.49,42.96,5.79,2020-03-15
Kavaratti,1,IN,2020-03-15 18:30:54,69,10.57,72.64,83.1,7.18,2020-03-15
Gdynia,71,PL,2020-03-15 18:32:38,44,54.52,18.53,44.01,16.11,2020-03-15
Riyadh,0,SA,2020-03-15 18:32:39,35,24.69,46.72,71.6,10.29,2020-03-15
Hong Kong,20,HK,2020-03-15 18:32:39,77,22.29,114.16,68.0,9.17,2020-03-15
Santa Rosa,75,PH,2020-03-15 18:32:39,74,14.31,121.11,80.6,2.24,2020-03-15
Robertsport,100,LR,2020-03-15 18:32:39,82,6.75,-11.37,83.1,13.27,2020-03-15
Morondava,15,MG,2020-03-15 18:32:39,83,-20.28,44.28,78.24,4.61,2020-03-15
Carson City,40,US,2020-03-15 18:28:25,65,39.16,-119.77,41.0,11.41,2020-03-15
Thompson,20,CA,2020-03-15 18:29:54,43,55.74,-97.86,15.8,14.99,2020-03-15
Svecha,35,RU,2020-03-15 18:32:40,92,58.28,47.52,17.94,6.02,2020-03-15
Aswān,0,EG,2020-03-15 18:28:51,33,24.09,32.91,77.0,6.93,2020-03-15
Katsuura,99,JP,2020-03-15 18:28:40,81,35.13,140.3,42.8,9.17,2020-03-15
Point Fortin,75,TT,2020-03-15 18:32:40,78,10.18,-61.68,80.01,13.87,2020-03-15
Chesma,0,RU,2020-03-15 18:32:40,83,53.81,60.65,27.66,7.38,2020-03-15
Dallas,90,US,2020-03-15 18:28:09,100,32.77,-96.78,57.2,9.17,2020-03-15
Bocas del Toro,21,PA,2020-03-15 18:31:39,47,9.33,-82.25,75.99,11.01,2020-03-15
Lodja,99,CD,2020-03-15 18:32:41,89,-3.48,23.43,74.64,1.86,2020-03-15
Coquimbo,75,CL,2020-03-15 18:32:41,77,-29.95,-71.34,64.4,13.87,2020-03-15
Itarema,57,BR,2020-03-15 18:32:41,81,-2.92,-39.92,83.64,6.38,2020-03-15
Hofn,75,IS,2020-03-15 18:28:40,74,64.25,-15.21,28.4,5.82,2020-03-15
Kavieng,100,PG,2020-03-15 18:31:29,70,-2.57,150.8,84.54,7.74,2020-03-15
Portobelo,40,PA,2020-03-15 18:32:42,43,9.55,-79.65,91.99,13.87,2020-03-15
Kulhudhuffushi,2,MV,2020-03-15 18:32:42,72,6.62,73.07,83.82,5.32,2020-03-15
Saint-Pierre,100,RE,2020-03-15 18:32:42,78,-21.34,55.48,78.8,13.87,2020-03-15
Belmonte,40,BR,2020-03-15 18:22:42,70,-15.86,-38.88,84.2,5.82,2020-03-15
São Filipe,0,CV,2020-03-15 18:30:54,69,14.9,-24.5,72.84,20.51,2020-03-15
Gari,88,RU,2020-03-15 18:32:43,93,59.43,62.35,24.24,11.63,2020-03-15
Onega,34,RU,2020-03-15 18:32:43,73,63.91,38.14,26.22,18.07,2020-03-15
Avera,90,US,2020-03-15 18:29:55,72,33.19,-82.53,73.4,6.93,2020-03-15
Marsaxlokk,40,MT,2020-03-15 18:32:43,87,35.84,14.54,60.01,11.41,2020-03-15
College,90,US,2020-03-15 18:32:43,92,64.86,-147.8,27.0,1.3,2020-03-15
Port Lincoln,25,AU,2020-03-15 18:28:51,76,-34.73,135.87,63.48,12.68,2020-03-15
Madang,100,PG,2020-03-15 18:32:43,85,-5.22,145.8,77.7,13.98,2020-03-15
Sur,99,OM,2020-03-15 18:32:44,69,22.57,59.53,69.42,8.3,2020-03-15
Ponta do Sol,40,PT,2020-03-15 18:32:44,67,32.67,-17.1,62.6,19.46,2020-03-15
Isla Aguada,1,MX,2020-03-15 18:32:44,74,18.78,-91.47,78.42,7.2,2020-03-15
Posse,100,BR,2020-03-15 18:32:44,78,-14.09,-46.37,80.04,2.71,2020-03-15
San Cristobal,75,VE,2020-03-15 18:32:45,61,7.77,-72.22,80.6,8.05,2020-03-15
San Andrés,20,CO,2020-03-15 18:32:45,66,12.58,-81.7,86.0,14.99,2020-03-15
Buchanan,75,LR,2020-03-15 18:29:38,83,5.88,-10.05,80.6,4.7,2020-03-15
Mount Gambier,0,AU,2020-03-15 18:32:45,93,-37.83,140.77,44.6,5.82,2020-03-15
Tura,52,IN,2020-03-15 18:29:06,69,25.52,90.22,66.72,2.21,2020-03-15
Mehamn,20,NO,2020-03-15 18:31:25,46,71.04,27.85,28.4,11.41,2020-03-15
Yumen,100,CN,2020-03-15 18:22:49,23,40.28,97.2,35.4,7.92,2020-03-15
Raspenava,67,CZ,2020-03-15 18:32:46,33,50.9,15.11,46.99,11.01,2020-03-15
Arrondissement de Saint-Jean-de-Maurienne,68,FR,2020-03-15 18:32:46,91,45.17,6.58,45.0,10.0,2020-03-15
Venice,20,US,2020-03-15 18:32:46,69,27.1,-82.45,90.0,9.17,2020-03-15
Isangel,100,VU,2020-03-15 18:32:46,83,-19.55,169.27,82.38,29.3,2020-03-15
Kungälv,90,SE,2020-03-15 18:32:46,87,57.87,11.98,45.0,26.4,2020-03-15
Vardø,94,NO,2020-03-15 18:31:19,79,70.37,31.11,23.0,27.51,2020-03-15
El Socorro,75,HN,2020-03-15 18:32:47,31,14.63,-87.92,89.6,3.36,2020-03-15
Yarmouth,1,US,2020-03-15 18:32:00,42,41.71,-70.23,48.99,11.41,2020-03-15
Bonthe,100,SL,2020-03-15 18:29:16,62,7.53,-12.51,84.72,11.99,2020-03-15
Vargashi,95,RU,2020-03-15 18:32:47,83,55.36,65.85,32.7,19.91,2020-03-15
Chumikan,4,RU,2020-03-15 18:32:47,92,54.72,135.31,-3.3,1.45,2020-03-15
Ancud,20,CL,2020-03-15 18:32:48,55,-41.87,-73.82,66.2,11.41,2020-03-15
Kamennogorsk,84,RU,2020-03-15 18:32:48,69,60.95,29.13,35.6,13.87,2020-03-15
Ocós,40,GT,2020-03-15 18:32:48,55,14.51,-92.19,91.4,9.17,2020-03-15
Roald,75,NO,2020-03-15 18:32:48,97,62.58,6.13,37.4,18.34,2020-03-15
Miles City,90,US,2020-03-15 18:32:48,85,46.41,-105.84,21.99,16.11,2020-03-15
Angoche,72,MZ,2020-03-15 18:32:48,88,-16.23,39.91,75.36,4.09,2020-03-15
Evensk,100,RU,2020-03-15 18:32:49,93,61.95,159.23,3.0,7.72,2020-03-15
Husavik,40,IS,2020-03-15 18:32:49,68,66.04,-17.34,28.4,40.26,2020-03-15
Kota,27,IN,2020-03-15 18:32:49,29,25.18,75.83,64.74,4.12,2020-03-15
Anadyr,75,RU,2020-03-15 18:32:49,79,64.75,177.48,26.6,6.71,2020-03-15
Belaya Gora,0,RU,2020-03-15 18:32:49,96,68.53,146.42,-26.34,1.7,2020-03-15
San Miguel,11,SV,2020-03-15 18:32:50,17,13.48,-88.18,101.28,7.05,2020-03-15
New Albany,90,US,2020-03-15 18:32:50,73,38.29,-85.82,42.01,8.05,2020-03-15
Ribeira Grande,20,PT,2020-03-15 18:29:28,72,38.52,-28.7,64.4,8.05,2020-03-15
Keetmanshoop,0,NA,2020-03-15 18:32:50,15,-26.58,18.13,93.2,10.29,2020-03-15
Balkanabat,6,TM,2020-03-15 18:32:50,69,39.51,54.37,54.3,3.65,2020-03-15
Banikoara,26,BJ,2020-03-15 18:32:50,10,11.3,2.44,92.1,5.37,2020-03-15
Otradnaya,100,RU,2020-03-15 18:32:50,10,44.39,41.52,30.0,8.01,2020-03-15
Margate,40,GB,2020-03-15 18:31:06,76,51.38,1.39,53.01,12.75,2020-03-15
Olafsvik,100,IS,2020-03-15 18:32:51,67,64.89,-23.71,36.12,26.6,2020-03-15
Japura,2,ID,2020-03-15 18:32:51,95,-0.32,102.35,74.1,1.39,2020-03-15
Le Port,100,RE,2020-03-15 18:32:51,78,-20.94,55.29,78.8,9.17,2020-03-15
Acajutla,0,SV,2020-03-15 18:32:51,71,13.59,-89.83,82.38,12.39,2020-03-15
Pisco,77,PE,2020-03-15 18:29:52,30,-13.7,-76.22,73.99,8.05,2020-03-15
Hasaki,20,JP,2020-03-15 18:32:52,86,35.73,140.83,37.4,5.82,2020-03-15
Inverell,0,AU,2020-03-15 18:27:57,83,-29.78,151.12,52.0,4.0,2020-03-15
Meulaboh,60,ID,2020-03-15 18:32:52,70,4.14,96.13,85.08,0.76,2020-03-15
Zhalantun,0,CN,2020-03-15 18:32:52,71,48.0,122.72,3.72,3.98,2020-03-15
La Rioja,40,ES,2020-03-15 18:32:52,82,42.25,-2.5,57.2,4.7,2020-03-15
Isla Mujeres,75,MX,2020-03-15 18:28:15,69,21.23,-86.73,82.4,12.75,2020-03-15
Tiksi,99,RU,2020-03-15 18:32:53,87,71.69,128.87,3.0,18.37,2020-03-15
Provideniya,100,RU,2020-03-15 18:32:53,98,64.38,-173.3,25.68,5.23,2020-03-15
Carutapera,100,BR,2020-03-15 18:32:53,83,-1.2,-46.02,78.06,6.69,2020-03-15
Xining,99,CN,2020-03-15 18:30:36,83,36.62,101.77,25.86,5.5,2020-03-15
Kilindoni,57,TZ,2020-03-15 18:29:49,78,-7.91,39.67,84.9,8.21,2020-03-15
Wad Medani,91,SD,2020-03-15 18:32:54,10,14.4,33.52,80.04,11.88,2020-03-15
Sangar,95,RU,2020-03-15 18:32:54,83,63.92,127.47,-5.28,11.39,2020-03-15
Kungurtug,99,RU,2020-03-15 18:30:00,77,50.6,97.52,18.12,5.37,2020-03-15
Kamenka,100,RU,2020-03-15 18:32:54,88,51.32,42.77,24.01,18.32,2020-03-15
San Lorenzo,18,PY,2020-03-15 18:32:54,41,-25.33,-57.53,93.2,16.11,2020-03-15
Winneba,20,GH,2020-03-15 18:32:55,83,5.35,-0.62,84.2,14.99,2020-03-15
Severnyy,75,RU,2020-03-15 18:32:55,79,50.68,36.55,24.8,8.95,2020-03-15
Arrondissement de Nevers,92,FR,2020-03-15 18:32:55,54,46.92,3.33,59.0,5.82,2020-03-15
Umm Bāb,20,QA,2020-03-15 18:32:55,46,25.21,50.81,77.0,9.17,2020-03-15
Nieuw Amsterdam,40,SR,2020-03-15 18:32:55,49,5.88,-55.08,91.4,5.82,2020-03-15
Kiama,40,AU,2020-03-15 18:32:55,100,-34.68,150.87,59.0,11.41,2020-03-15
Ploemeur,75,FR,2020-03-15 18:32:56,93,47.73,-3.43,50.0,4.7,2020-03-15
Torrejón de Ardoz,40,ES,2020-03-15 18:31:09,59,40.46,-3.47,64.99,8.05,2020-03-15
Najrān,5,SA,2020-03-15 18:29:22,24,17.49,44.13,78.8,11.41,2020-03-15
Caramay,2,PH,2020-03-15 18:32:56,80,10.18,119.24,72.48,5.68,2020-03-15
Assiut,9,EG,2020-03-15 18:32:56,56,27.18,31.18,71.6,11.41,2020-03-15
Beringovskiy,0,RU,2020-03-15 18:32:20,93,63.05,179.32,20.46,7.58,2020-03-15
Northam,56,GB,2020-03-15 18:32:29,87,51.03,-4.22,46.99,3.0,2020-03-15
Banda Aceh,100,ID,2020-03-15 18:32:57,93,5.56,95.32,75.72,5.26,2020-03-15
Putina,85,PE,2020-03-15 18:32:57,71,-15.47,-69.43,49.98,7.0,2020-03-15
Belyy Yar,100,RU,2020-03-15 18:32:57,90,53.6,91.39,39.2,11.18,2020-03-15
Aklavik,20,CA,2020-03-15 18:32:19,55,68.22,-135.01,8.6,9.17,2020-03-15
Quatre Cocos,40,MU,2020-03-15 18:32:57,83,-20.21,57.76,77.0,12.08,2020-03-15
Saint George,75,US,2020-03-15 18:31:12,50,37.1,-113.58,60.01,10.29,2020-03-15
Torbay,90,CA,2020-03-15 18:29:24,86,47.67,-52.73,33.01,21.92,2020-03-15
Lixouri,40,GR,2020-03-15 18:32:58,72,38.2,20.43,60.8,16.11,2020-03-15
Ardabil,43,IR,2020-03-15 18:32:58,83,38.25,48.29,37.74,7.63,2020-03-15
Gilbués,57,BR,2020-03-15 18:32:58,55,-9.83,-45.34,86.16,7.02,2020-03-15
Cabedelo,90,BR,2020-03-15 18:32:58,94,-6.98,-34.83,77.0,10.29,2020-03-15
Tahoua,92,NE,2020-03-15 18:32:59,4,14.89,5.27,91.4,4.7,2020-03-15
Burns Lake,41,CA,2020-03-15 18:32:59,60,54.23,-125.75,20.64,1.86,2020-03-15
Nadvoitsy,75,RU,2020-03-15 18:32:59,79,63.87,34.32,27.84,13.8,2020-03-15
Noumea,99,NC,2020-03-15 18:32:59,83,-22.28,166.46,80.6,18.34,2020-03-15
Boralday,0,KZ,2020-03-15 18:32:59,60,43.36,76.86,41.0,6.71,2020-03-15
Maracaçumé,100,BR,2020-03-15 18:32:59,98,-2.04,-45.96,74.46,4.38,2020-03-15
Forsytheganj,0,BY,2020-03-15 18:33:00,58,52.63,29.73,30.0,7.54,2020-03-15
Hirara,0,JP,2020-03-15 18:33:00,54,24.8,125.28,63.84,15.37,2020-03-15
Goya,83,AR,2020-03-15 18:33:00,48,-29.14,-59.26,89.94,8.23,2020-03-15
Mossamedes,56,AO,2020-03-15 18:33:00,87,-15.2,12.15,75.54,11.07,2020-03-15
Chui,100,UY,2020-03-15 18:28:48,56,-33.7,-53.46,73.2,10.65,2020-03-15
Bijie,100,CN,2020-03-15 18:33:00,87,27.31,105.29,48.36,4.99,2020-03-15
Luganville,100,VU,2020-03-15 18:28:43,93,-15.53,167.17,75.54,2.48,2020-03-15
Wasilla,1,US,2020-03-15 18:33:01,78,61.58,-149.44,17.01,1.97,2020-03-15
Waipawa,50,NZ,2020-03-15 18:33:01,82,-41.41,175.52,60.8,20.8,2020-03-15
Half Moon Bay,75,US,2020-03-15 18:33:01,71,37.46,-122.43,53.6,11.41,2020-03-15
Palora,75,EC,2020-03-15 18:33:01,44,-1.7,-77.93,93.2,8.05,2020-03-15
Labuhan,52,ID,2020-03-15 18:33:02,91,-6.88,112.21,76.08,2.73,2020-03-15
Pacific Grove,90,US,2020-03-15 18:31:24,76,36.62,-121.92,55.0,4.7,2020-03-15
Sydney,75,AU,2020-03-15 18:30:30,93,-33.87,151.21,62.6,14.99,2020-03-15
Osmeña,0,PH,2020-03-15 18:33:02,74,10.52,119.93,81.12,14.56,2020-03-15
Agirish,56,RU,2020-03-15 18:29:10,91,61.92,63.02,12.72,9.78,2020-03-15
Okakarara,89,NA,2020-03-15 18:33:02,50,-20.58,17.43,74.64,2.24,2020-03-15
Hindoria,13,IN,2020-03-15 18:33:03,24,23.9,79.57,69.96,6.71,2020-03-15
Lagoa,0,PT,2020-03-15 18:33:03,70,39.05,-27.98,58.62,3.98,2020-03-15
Kalmunai,22,LK,2020-03-15 18:29:45,79,7.42,81.82,82.38,12.57,2020-03-15
Garachiné,86,PA,2020-03-15 18:33:03,81,8.06,-78.36,77.88,11.83,2020-03-15
Cartagena del Chairá,97,CO,2020-03-15 18:33:03,65,1.33,-74.84,85.08,2.57,2020-03-15
Cidreira,90,BR,2020-03-15 18:33:04,83,-30.18,-50.21,76.44,17.85,2020-03-15
Cap Malheureux,40,MU,2020-03-15 18:33:04,83,-19.98,57.61,77.0,9.75,2020-03-15
Namtsy,100,RU,2020-03-15 18:33:04,76,62.72,129.67,-11.2,6.71,2020-03-15
Hualmay,100,PE,2020-03-15 18:33:04,57,-11.1,-77.61,80.94,11.34,2020-03-15
Klaksvík,95,FO,2020-03-15 18:33:04,77,62.23,-6.59,32.0,3.36,2020-03-15
Mount Isa,0,AU,2020-03-15 18:33:05,31,-20.73,139.5,75.2,10.29,2020-03-15
Acurenam,24,GQ,2020-03-15 18:33:05,96,1.03,10.65,71.94,5.48,2020-03-15
Tevriz,100,RU,2020-03-15 18:33:05,91,57.51,72.4,37.74,12.5,2020-03-15
Raudeberg,40,NO,2020-03-15 18:33:05,86,61.99,5.14,41.0,12.75,2020-03-15
Ejido,100,VE,2020-03-15 18:33:05,91,8.55,-71.24,54.12,2.33,2020-03-15
Jega,87,NG,2020-03-15 18:33:06,9,12.22,4.38,89.58,7.96,2020-03-15
Dawlatabad,99,AF,2020-03-15 18:31:40,40,36.41,64.91,61.86,2.35,2020-03-15
Kuragino,100,RU,2020-03-15 18:33:06,95,53.9,92.67,33.78,4.59,2020-03-15
Tessalit,36,ML,2020-03-15 18:33:06,11,20.2,1.01,89.04,10.22,2020-03-15
Vadlapūdi,17,IN,2020-03-15 18:33:06,84,14.32,79.8,76.08,3.51,2020-03-15
Darłowo,100,PL,2020-03-15 18:33:07,40,54.42,16.41,46.0,17.96,2020-03-15
Lompoc,90,US,2020-03-15 18:31:08,62,34.64,-120.46,59.0,19.46,2020-03-15
The Valley,20,AI,2020-03-15 18:28:44,54,18.22,-63.06,82.4,9.17,2020-03-15
Satipo,100,PE,2020-03-15 18:33:07,80,-11.25,-74.64,73.2,1.52,2020-03-15
Bārān,7,IN,2020-03-15 18:33:07,30,25.1,76.52,66.18,6.22,2020-03-15
Yangi Marg`ilon,52,UZ,2020-03-15 18:30:51,40,40.43,71.72,53.6,9.17,2020-03-15
Puerto Cabezas,75,NI,2020-03-15 18:33:08,74,14.04,-83.39,86.0,11.41,2020-03-15
Arman',95,RU,2020-03-15 18:33:08,96,59.7,150.17,-0.6,7.45,2020-03-15
Aubenas,20,FR,2020-03-15 18:33:08,62,44.62,4.39,57.2,20.8,2020-03-15
Nevşehir,75,TR,2020-03-15 18:33:08,66,38.92,34.67,55.4,18.34,2020-03-15
Iqaluit,75,CA,2020-03-15 18:33:08,69,63.75,-68.51,-11.0,4.7,2020-03-15
Broken Hill,0,AU,2020-03-15 18:33:09,48,-31.95,141.43,60.8,10.29,2020-03-15
Puksoozero,0,RU,2020-03-15 18:33:09,85,62.59,40.61,20.28,10.8,2020-03-15
Tepalcatepec,11,MX,2020-03-15 18:33:09,48,19.18,-102.85,84.0,4.94,2020-03-15
Eureka,1,US,2020-03-15 18:28:25,79,40.8,-124.16,48.0,8.05,2020-03-15
Cedral,18,MX,2020-03-15 18:33:09,42,23.8,-100.73,74.28,7.87,2020-03-15
Zion,40,US,2020-03-15 18:31:20,59,42.45,-87.83,41.0,9.17,2020-03-15
Tautira,20,PF,2020-03-15 18:33:10,66,-17.73,-149.15,84.2,5.82,2020-03-15
Fuxin,0,CN,2020-03-15 18:33:10,35,42.02,121.66,20.64,3.29,2020-03-15
Coyhaique,40,CL,2020-03-15 18:31:09,55,-45.58,-72.07,64.4,8.05,2020-03-15
Caravelas,100,BR,2020-03-15 18:33:10,75,-17.71,-39.25,80.94,7.54,2020-03-15
Salalah,20,OM,2020-03-15 18:33:10,61,17.02,54.09,77.0,8.05,2020-03-15
Herat Province,75,AF,2020-03-15 18:33:11,34,34.5,62.0,66.2,8.05,2020-03-15
Malakal,42,SS,2020-03-15 18:33:11,16,9.53,31.66,88.14,5.79,2020-03-15
Greystones,20,IE,2020-03-15 18:33:11,56,53.14,-6.06,46.0,14.99,2020-03-15
Road Town,20,VG,2020-03-15 18:32:23,58,18.42,-64.62,82.4,12.75,2020-03-15
Cam Ranh,20,VN,2020-03-15 18:33:11,83,11.92,109.16,80.6,4.7,2020-03-15
East Wenatchee Bench,90,US,2020-03-15 18:33:12,63,47.43,-120.28,33.01,3.36,2020-03-15
Mareeba,27,AU,2020-03-15 18:33:12,94,-17.0,145.43,69.8,2.28,2020-03-15
Egvekinot,99,RU,2020-03-15 18:33:12,99,66.32,-179.17,8.22,6.24,2020-03-15
Tabuk,98,PH,2020-03-15 18:33:12,87,17.42,121.44,69.6,7.92,2020-03-15
Milazzo,75,IT,2020-03-15 18:33:12,82,38.22,15.24,60.01,2.24,2020-03-15
Arraial do Cabo,0,BR,2020-03-15 18:29:18,66,-22.97,-42.03,89.6,16.11,2020-03-15
Yatou,0,CN,2020-03-15 18:33:13,49,37.15,122.38,32.16,10.38,2020-03-15
Port-Gentil,40,GA,2020-03-15 18:33:13,83,-0.72,8.78,84.2,9.17,2020-03-15
Avilés,75,ES,2020-03-15 18:33:13,87,43.55,-5.92,45.0,10.29,2020-03-15
Shubarkuduk,57,KZ,2020-03-15 18:33:13,86,49.14,56.49,31.62,7.11,2020-03-15
Xalapa,0,MX,2020-03-15 18:33:13,51,19.53,-96.92,70.68,7.07,2020-03-15
Kristinestad,100,FI,2020-03-15 18:33:14,83,62.27,21.38,37.56,22.26,2020-03-15
Sept-Îles,90,CA,2020-03-15 18:33:14,62,50.2,-66.38,21.2,14.99,2020-03-15
Priiskovyy,100,RU,2020-03-15 18:33:14,95,51.93,116.63,17.58,4.0,2020-03-15
Saldanha,83,ZA,2020-03-15 18:33:14,53,-33.01,17.94,71.6,17.22,2020-03-15
Pavlogradka,100,RU,2020-03-15 18:32:05,91,54.2,73.56,36.3,21.5,2020-03-15
Auki,100,SB,2020-03-15 18:33:14,74,-8.77,160.7,84.36,7.4,2020-03-15
Krutikha,100,RU,2020-03-15 18:33:15,92,53.96,81.21,35.4,15.26,2020-03-15
Okhotsk,97,RU,2020-03-15 18:33:15,98,59.38,143.3,-1.32,2.1,2020-03-15
Sioux Lookout,90,CA,2020-03-15 18:33:15,41,50.1,-91.92,26.6,3.36,2020-03-15
Bocanda,90,CI,2020-03-15 18:33:15,51,7.06,-4.5,89.04,4.7,2020-03-15
Dondo,0,MZ,2020-03-15 18:33:15,74,-19.61,34.74,82.4,10.29,2020-03-15
Paratinga,20,BR,2020-03-15 18:33:15,58,-12.69,-43.18,84.2,4.7,2020-03-15
Khanbari,17,NP,2020-03-15 18:33:16,73,27.37,87.2,38.28,3.22,2020-03-15
Padang,72,ID,2020-03-15 18:33:16,92,-0.95,100.35,69.6,5.35,2020-03-15
Berdigestyakh,76,RU,2020-03-15 18:33:16,98,62.1,126.7,-2.94,5.75,2020-03-15
Kingaroy,10,AU,2020-03-15 18:33:16,72,-26.53,151.83,60.8,9.17,2020-03-15
San Isidro,100,PE,2020-03-15 18:33:16,65,-12.12,-77.05,80.6,8.05,2020-03-15
Cookeville,90,US,2020-03-15 18:29:50,93,36.16,-85.5,46.0,9.17,2020-03-15
Fortuna,20,US,2020-03-15 18:33:17,75,40.6,-124.16,48.0,10.29,2020-03-15
Muzhi,74,RU,2020-03-15 18:33:17,99,65.37,64.67,-3.12,3.53,2020-03-15
Qinzhou,100,CN,2020-03-15 18:33:02,83,21.95,108.62,70.32,11.16,2020-03-15
Nador,75,MA,2020-03-15 18:32:27,82,35.17,-2.93,60.8,4.7,2020-03-15
Chokurdakh,0,RU,2020-03-15 18:33:17,71,70.63,147.92,-22.2,4.07,2020-03-15
Kjøpsvik,75,NO,2020-03-15 18:33:17,74,68.1,16.37,33.01,10.29,2020-03-15
Gijang,0,KR,2020-03-15 18:33:18,47,35.24,129.21,35.6,10.29,2020-03-15
Sogod,47,PH,2020-03-15 18:33:18,95,10.38,124.98,69.96,3.36,2020-03-15
Kumul,18,CN,2020-03-15 18:33:18,25,42.8,93.45,38.46,2.59,2020-03-15
Mananara,100,MG,2020-03-15 18:33:18,81,-16.17,49.77,81.66,24.36,2020-03-15
Flinders,40,AU,2020-03-15 18:33:18,100,-34.58,150.86,62.01,11.41,2020-03-15
Bourail,100,NC,2020-03-15 18:30:20,88,-21.57,165.48,75.0,19.17,2020-03-15
Marrakesh,75,MA,2020-03-15 18:31:34,63,31.63,-8.01,62.6,2.24,2020-03-15
Dongsheng,83,CN,2020-03-15 18:33:19,29,39.82,109.98,37.74,14.03,2020-03-15
Lavrentiya,100,RU,2020-03-15 18:33:19,98,65.58,-171.0,28.56,7.92,2020-03-15
Tateyama,78,JP,2020-03-15 18:30:29,81,34.98,139.87,42.8,9.17,2020-03-15
Rovaniemi,90,FI,2020-03-15 18:33:19,92,66.5,25.72,30.2,10.29,2020-03-15
Beloha,18,MG,2020-03-15 18:33:20,87,-25.17,45.05,72.48,12.62,2020-03-15
Agios Nikolaos,75,GR,2020-03-15 18:33:20,66,38.42,23.65,55.4,4.7,2020-03-15
Yulara,0,AU,2020-03-15 18:33:20,18,-25.24,130.99,75.2,6.93,2020-03-15
Kirakira,100,SB,2020-03-15 18:33:20,92,-10.45,161.92,76.62,8.23,2020-03-15
Lubao,75,PH,2020-03-15 18:33:20,78,14.92,120.55,80.6,3.36,2020-03-15
Yangambi,100,CD,2020-03-15 18:33:21,90,0.81,24.43,73.92,1.43,2020-03-15
Saint Anthony,75,US,2020-03-15 18:33:21,55,45.02,-93.22,37.99,8.05,2020-03-15
Zapolyarnyy,55,RU,2020-03-15 18:33:21,67,69.42,30.81,19.4,16.11,2020-03-15
Kapit,65,MY,2020-03-15 18:29:33,98,2.02,112.93,73.2,1.34,2020-03-15
Hohhot,83,CN,2020-03-15 18:33:21,63,40.81,111.65,26.6,4.47,2020-03-15
Ha Giang,100,VN,2020-03-15 18:33:21,92,22.83,104.98,60.6,2.19,2020-03-15
São Sebastião,0,BR,2020-03-15 18:33:22,86,-23.76,-45.41,78.42,10.67,2020-03-15
Khovd,91,MN,2020-03-15 18:33:22,34,48.01,91.64,28.2,5.75,2020-03-15
Mwinilunga,100,ZM,2020-03-15 18:33:22,97,-11.74,24.43,65.64,1.97,2020-03-15
Prince Albert,75,CA,2020-03-15 18:33:22,72,53.2,-105.77,12.2,5.82,2020-03-15
Solenzo,100,BF,2020-03-15 18:33:22,26,12.18,-4.08,97.14,2.93,2020-03-15
Lindi,40,TZ,2020-03-15 18:29:36,94,-10.0,39.72,80.6,0.2,2020-03-15
Dubrovnik,12,HR,2020-03-15 18:33:23,37,42.65,18.09,53.6,18.34,2020-03-15
Waddān,0,LY,2020-03-15 18:31:02,14,29.16,16.14,75.36,10.07,2020-03-15
Praia da Vitória,40,PT,2020-03-15 18:33:23,72,38.73,-27.07,62.6,3.53,2020-03-15
Manokwari,100,ID,2020-03-15 18:33:23,86,-0.87,134.08,72.66,1.54,2020-03-15
Gemena,93,CD,2020-03-15 18:33:24,50,3.25,19.77,82.02,3.33,2020-03-15
Taoudenni,0,ML,2020-03-15 18:33:24,4,22.68,-3.98,89.94,10.02,2020-03-15
Vestmannaeyjar,90,IS,2020-03-15 18:33:24,64,63.44,-20.27,39.2,13.87,2020-03-15
Havre-St-Pierre,40,CA,2020-03-15 18:31:12,42,50.23,-63.6,30.2,9.17,2020-03-15
Yerbogachën,100,RU,2020-03-15 18:31:35,96,61.28,108.01,28.38,10.56,2020-03-15
Lábrea,99,BR,2020-03-15 18:33:25,88,-7.26,-64.8,84.9,3.85,2020-03-15
Lorengau,100,PG,2020-03-15 18:33:25,75,-2.02,147.27,83.28,12.33,2020-03-15
Gmina Opole Lubelskie,0,PL,2020-03-15 18:33:25,49,51.15,21.97,36.0,8.32,2020-03-15
Kotagiri,0,IN,2020-03-15 18:33:25,48,11.43,76.88,82.4,3.36,2020-03-15
Labé,93,GN,2020-03-15 18:33:25,12,11.32,-12.28,90.66,7.4,2020-03-15
Namatanai,100,PG,2020-03-15 18:33:25,78,-3.67,152.43,82.2,11.18,2020-03-15
Muros,40,ES,2020-03-15 18:33:26,87,42.78,-9.06,50.0,2.24,2020-03-15
Slave Lake,20,CA,2020-03-15 18:33:26,60,55.28,-114.77,5.0,2.24,2020-03-15
Seoul,1,KR,2020-03-15 18:33:26,63,37.57,126.98,32.0,3.36,2020-03-15
Kaeo,100,NZ,2020-03-15 18:33:26,93,-35.1,173.78,59.0,5.01,2020-03-15
Te Anau,83,NZ,2020-03-15 18:33:25,79,-45.42,167.72,51.6,6.85,2020-03-15
Hokitika,81,NZ,2020-03-15 18:33:26,83,-42.72,170.97,58.8,1.92,2020-03-15
Nizwá,17,OM,2020-03-15 18:33:27,31,22.93,57.53,64.92,8.68,2020-03-15
Malibu,90,US,2020-03-15 18:32:53,62,34.01,-118.81,63.0,10.29,2020-03-15
Am Timan,37,TD,2020-03-15 18:33:27,14,11.03,20.28,85.8,1.68,2020-03-15
Bubaque,100,GW,2020-03-15 18:33:27,63,11.28,-15.83,81.84,18.28,2020-03-15
Omboué,95,GA,2020-03-15 18:33:27,90,-1.57,9.26,78.6,3.29,2020-03-15
Eséka,22,CM,2020-03-15 18:33:27,78,3.65,10.77,77.34,6.06,2020-03-15
Teknāf,12,BD,2020-03-15 18:33:28,63,20.86,92.31,67.8,2.13,2020-03-15
San Quintín,6,MX,2020-03-15 18:33:29,66,30.48,-115.95,62.22,9.84,2020-03-15
Abay,98,KZ,2020-03-15 18:33:29,74,49.63,72.85,35.6,17.9,2020-03-15
La Ronge,75,CA,2020-03-15 18:33:29,61,55.1,-105.28,14.0,10.29,2020-03-15
Progreso,75,MX,2020-03-15 18:33:29,41,21.28,-89.67,91.4,11.41,2020-03-15
Boddam,75,GB,2020-03-15 18:33:30,87,57.47,-1.78,45.0,19.46,2020-03-15
Shingū,42,JP,2020-03-15 18:33:30,69,33.73,135.98,46.2,22.12,2020-03-15
Luk Pu,67,CN,2020-03-15 18:33:30,95,23.17,112.28,70.0,3.13,2020-03-15
Palu,60,ID,2020-03-15 18:33:30,94,-0.89,119.87,66.9,2.21,2020-03-15
Umluj,0,SA,2020-03-15 18:33:30,55,25.02,37.27,70.14,7.9,2020-03-15
Mahon,0,ES,2020-03-15 18:33:30,76,39.89,4.27,55.4,8.05,2020-03-15
‘Āhuimanu,75,US,2020-03-15 18:33:31,100,21.44,-157.84,78.8,4.7,2020-03-15
Hailar,41,CN,2020-03-15 18:33:31,73,49.2,119.7,2.64,8.57,2020-03-15
Beira,0,MZ,2020-03-15 18:33:31,74,-19.84,34.84,82.4,10.29,2020-03-15
Maun,75,BW,2020-03-15 18:33:31,61,-19.98,23.42,78.8,2.24,2020-03-15
Båtsfjord,26,NO,2020-03-15 18:33:31,79,70.63,29.72,23.0,27.51,2020-03-15
Adrar,0,MR,2020-03-15 18:33:31,8,20.5,-10.07,85.8,9.53,2020-03-15
Makat,100,KZ,2020-03-15 18:33:32,41,47.65,53.35,48.18,3.67,2020-03-15
Pak Phanang,44,TH,2020-03-15 18:33:32,83,8.35,100.2,78.06,2.84,2020-03-15
Solnechnyy,77,RU,2020-03-15 18:33:32,86,50.72,136.63,4.98,2.46,2020-03-15
Vuktyl,42,RU,2020-03-15 18:33:05,93,63.86,57.31,-3.84,2.77,2020-03-15
Zonguldak,100,TR,2020-03-15 18:33:32,96,41.25,31.83,36.12,6.26,2020-03-15
Ituiutaba,0,BR,2020-03-15 18:33:33,64,-18.97,-49.47,84.36,7.52,2020-03-15
Miandrivazo,90,MG,2020-03-15 18:33:33,80,-19.52,45.47,79.14,1.92,2020-03-15
Ulundi,80,ZA,2020-03-15 18:33:33,97,-28.34,31.42,69.06,7.27,2020-03-15
Ust-Tsilma,75,RU,2020-03-15 18:33:33,89,65.44,52.15,15.24,7.72,2020-03-15
Chuzhou,99,CN,2020-03-15 18:33:33,51,32.32,118.3,52.0,1.99,2020-03-15
Noyabrsk,76,RU,2020-03-15 18:32:04,95,63.2,75.45,8.4,9.33,2020-03-15
Wilmington Island,40,US,2020-03-15 18:28:50,48,32.0,-80.97,82.4,11.41,2020-03-15
Saint-Augustin,100,CA,2020-03-15 18:33:34,63,51.23,-58.65,26.22,14.03,2020-03-15
Birin,18,NP,2020-03-15 18:29:27,73,26.89,88.07,48.36,5.46,2020-03-15
Moba,100,CN,2020-03-15 18:33:34,92,33.23,105.02,48.99,1.77,2020-03-15
Grand Gaube,40,MU,2020-03-15 18:33:24,83,-20.01,57.66,77.0,9.75,2020-03-15
La Tuque,67,CA,2020-03-15 18:33:34,81,47.43,-72.78,16.86,9.42,2020-03-15
Chicama,40,PE,2020-03-15 18:33:35,78,-7.84,-79.15,75.2,11.41,2020-03-15
Tual,100,ID,2020-03-15 18:33:35,81,-5.67,132.75,79.86,12.33,2020-03-15
Gayéri,54,BF,2020-03-15 18:33:35,8,12.65,0.49,94.26,7.02,2020-03-15
Limbang,75,MY,2020-03-15 18:33:35,83,4.75,115.0,80.6,4.7,2020-03-15
Dudinka,20,RU,2020-03-15 18:32:05,75,69.41,86.18,-14.8,6.71,2020-03-15
Tuatapere,95,NZ,2020-03-15 18:32:16,92,-46.13,167.68,54.0,11.01,2020-03-15
Comodoro Rivadavia,0,AR,2020-03-15 18:29:55,36,-45.87,-67.5,77.0,13.87,2020-03-15
Malé,20,MV,2020-03-15 18:30:28,70,4.17,73.51,86.0,8.05,2020-03-15
Baoying,100,CN,2020-03-15 18:33:37,76,33.23,119.31,42.96,10.92,2020-03-15
Kirkuk,21,IQ,2020-03-15 18:33:37,77,35.47,44.39,56.64,2.26,2020-03-15
Aykhal,100,RU,2020-03-15 18:33:37,79,66.0,111.5,23.0,6.71,2020-03-15
Kahului,40,US,2020-03-15 18:33:37,88,20.89,-156.47,71.6,6.93,2020-03-15
Parrita,20,CR,2020-03-15 18:33:38,50,9.52,-84.32,84.2,20.8,2020-03-15
Zyryanka,0,RU,2020-03-15 18:33:38,79,65.75,150.85,-18.24,5.19,2020-03-15
Knysna,90,ZA,2020-03-15 18:33:38,88,-34.04,23.05,62.6,6.93,2020-03-15
Laguna,90,US,2020-03-15 18:33:33,93,38.42,-121.42,54.0,11.41,2020-03-15
Nemuro,0,JP,2020-03-15 18:33:38,62,43.32,145.57,28.2,10.07,2020-03-15
Oodweyne,30,SO,2020-03-15 18:33:38,54,9.41,45.06,72.48,5.28,2020-03-15
Nurota,100,UZ,2020-03-15 18:31:15,38,40.56,65.69,60.8,9.17,2020-03-15
Muhafazat Lahij,57,YE,2020-03-15 18:33:39,72,13.17,44.58,74.46,5.68,2020-03-15
Miraflores,5,MX,2020-03-15 18:33:39,25,19.22,-98.81,77.0,7.56,2020-03-15
Marzuq,32,YE,2020-03-15 18:33:39,74,14.4,46.47,67.62,5.01,2020-03-15
Mana,63,GF,2020-03-15 18:33:25,48,5.66,-53.78,88.86,7.81,2020-03-15
Ekibastuz,100,KZ,2020-03-15 18:33:06,81,51.67,75.37,37.92,20.76,2020-03-15
Ordzhonīkīdze,7,KZ,2020-03-15 18:33:40,86,52.44,61.74,28.2,9.1,2020-03-15
Saint-François,1,FR,2020-03-15 18:33:40,50,46.42,3.91,57.2,16.11,2020-03-15
Conceição da Barra,100,BR,2020-03-15 18:33:40,71,-18.59,-39.73,81.66,7.65,2020-03-15
Jijiga,86,ET,2020-03-15 18:32:19,61,9.35,42.8,69.06,3.29,2020-03-15
Atamanovka,100,RU,2020-03-15 18:33:40,59,51.93,113.63,35.6,11.18,2020-03-15
Dawson Creek,20,CA,2020-03-15 18:29:43,60,55.77,-120.24,5.0,1.72,2020-03-15
Graaff-Reinet,60,ZA,2020-03-15 18:33:42,80,-32.25,24.53,63.0,5.01,2020-03-15
Dabakala,63,CI,2020-03-15 18:33:42,42,8.37,-4.43,92.1,4.54,2020-03-15
Rājula,58,IN,2020-03-15 18:33:42,21,21.05,71.43,76.44,11.61,2020-03-15
Ağdam,75,AZ,2020-03-15 18:33:43,75,39.99,46.93,55.56,4.18,2020-03-15
Urzhum,83,RU,2020-03-15 18:33:43,95,57.11,50.0,26.76,8.97,2020-03-15
Machakos,40,KE,2020-03-15 18:33:43,83,-1.52,37.27,71.6,9.17,2020-03-15
Birao,39,CF,2020-03-15 18:33:43,14,10.28,22.79,86.16,7.25,2020-03-15
Wuchi,99,CN,2020-03-15 18:33:43,96,29.38,103.02,36.12,3.62,2020-03-15
Pangody,100,RU,2020-03-15 18:29:45,88,65.85,74.49,-2.22,7.94,2020-03-15
Homestead,40,US,2020-03-15 18:33:44,65,25.47,-80.48,84.99,9.17,2020-03-15
Narsaq,100,GL,2020-03-15 18:33:44,50,60.92,-46.05,28.4,9.17,2020-03-15
Ürümqi,0,CN,2020-03-15 18:33:44,56,43.8,87.6,41.0,8.95,2020-03-15
Monrovia,75,LR,2020-03-15 18:33:44,83,6.3,-10.8,80.6,4.7,2020-03-15
Grindavik,90,IS,2020-03-15 18:33:39,69,63.84,-22.43,35.6,25.28,2020-03-15
Morros,97,BR,2020-03-15 18:33:44,65,-9.45,-46.3,83.28,4.45,2020-03-15
Kudahuvadhoo,77,MV,2020-03-15 18:33:45,67,2.67,72.89,84.9,5.37,2020-03-15
Ucluelet,5,CA,2020-03-15 18:30:07,26,48.93,-125.55,42.8,3.36,2020-03-15
Boyolangu,34,ID,2020-03-15 18:33:45,90,-8.12,111.89,74.1,1.9,2020-03-15
Richards Bay,18,ZA,2020-03-15 18:33:45,82,-28.78,32.04,79.32,16.93,2020-03-15
Tornesch,100,DE,2020-03-15 18:33:45,50,53.7,9.72,54.0,5.82,2020-03-15
Abashiri,0,JP,2020-03-15 18:33:45,87,44.02,144.27,22.44,5.88,2020-03-15
City of San Pedro,75,PH,2020-03-15 18:33:10,74,14.35,121.02,80.6,2.24,2020-03-15
Nouadhibou,0,MR,2020-03-15 18:29:49,64,20.93,-17.03,69.8,20.8,2020-03-15
Bambanglipuro,100,ID,2020-03-15 18:33:46,85,-7.95,110.28,75.9,3.94,2020-03-15
Russell,75,US,2020-03-15 18:30:02,44,32.35,-85.2,82.0,8.05,2020-03-15
Beaufort,75,MY,2020-03-15 18:33:46,83,5.35,115.75,80.6,8.05,2020-03-15
Roebourne,18,AU,2020-03-15 18:33:46,62,-20.78,117.13,83.64,11.54,2020-03-15
Abancay,100,PE,2020-03-15 18:33:47,63,-13.63,-72.88,64.02,7.36,2020-03-15
Anáhuac,90,MX,2020-03-15 18:33:47,69,27.23,-100.15,78.8,12.75,2020-03-15
Khani,90,GE,2020-03-15 18:33:39,93,41.96,42.96,50.0,17.22,2020-03-15
Fare,6,PF,2020-03-15 18:33:47,77,-16.7,-151.02,82.38,13.94,2020-03-15
Burnie,26,AU,2020-03-15 18:33:47,94,-41.07,145.92,55.99,5.01,2020-03-15
Talara,43,PE,2020-03-15 18:33:07,100,-4.58,-81.27,62.6,14.99,2020-03-15
Alexandria,29,EG,2020-03-15 18:30:49,72,31.22,29.96,68.0,4.7,2020-03-15
Leh,0,IN,2020-03-15 18:33:48,50,34.17,77.58,13.44,2.1,2020-03-15
Sidrolândia,75,BR,2020-03-15 18:32:08,55,-20.93,-54.96,87.8,8.05,2020-03-15
Nha Trang,20,VN,2020-03-15 18:33:19,83,12.25,109.18,80.6,4.7,2020-03-15
Dingle,18,PH,2020-03-15 18:33:49,86,11.0,122.67,71.4,9.31,2020-03-15
Uray,100,RU,2020-03-15 18:29:23,81,60.12,64.78,26.04,11.5,2020-03-15
Macheng,70,CN,2020-03-15 18:33:03,50,31.18,115.03,55.38,3.06,2020-03-15
Mitsamiouli,20,KM,2020-03-15 18:31:31,88,-11.38,43.28,82.4,4.7,2020-03-15
Quelimane,20,MZ,2020-03-15 18:33:49,78,-17.88,36.89,82.4,6.93,2020-03-15
Rochegda,13,RU,2020-03-15 18:33:50,88,62.8,43.25,18.3,9.19,2020-03-15
Skellefteå,90,SE,2020-03-15 18:33:50,95,64.75,20.95,37.0,12.75,2020-03-15
Esmeraldas,40,BR,2020-03-15 18:33:50,45,-19.76,-44.31,86.0,4.7,2020-03-15
Bodden Town,20,KY,2020-03-15 18:33:50,70,19.28,-81.25,84.2,16.11,2020-03-15
Arrondissement de Vichy,48,FR,2020-03-15 18:33:50,50,46.25,3.58,57.2,16.11,2020-03-15
Ayacucho,75,PE,2020-03-15 18:32:30,43,-13.16,-74.22,69.8,4.7,2020-03-15
Mandalgovi,0,MN,2020-03-15 18:33:51,56,45.76,106.27,28.74,14.79,2020-03-15
Tigil',100,RU,2020-03-15 18:31:02,80,57.8,158.67,13.62,16.71,2020-03-15
São Miguel do Araguaia,83,BR,2020-03-15 18:30:31,81,-13.28,-50.16,82.38,3.42,2020-03-15
Voinka,63,UA,2020-03-15 18:33:51,41,45.87,33.99,36.3,16.91,2020-03-15
Dryden,20,CA,2020-03-15 18:33:51,45,49.78,-92.75,26.6,9.17,2020-03-15
Inhuma,100,BR,2020-03-15 18:33:51,81,-6.67,-41.71,80.4,4.07,2020-03-15
İzmir,75,TR,2020-03-15 18:33:52,67,38.46,27.09,57.2,13.87,2020-03-15
Alenquer,75,BR,2020-03-15 18:33:52,88,-1.94,-54.74,78.8,6.93,2020-03-15
Mabaruma,100,GY,2020-03-15 18:33:52,47,8.2,-59.78,90.3,5.28,2020-03-15
La Asuncion,92,VE,2020-03-15 18:33:52,64,11.03,-63.86,82.92,7.16,2020-03-15
Karratha,7,AU,2020-03-15 18:33:52,81,-20.74,116.85,83.82,17.78,2020-03-15
Montemarciano,0,IT,2020-03-15 18:33:52,71,43.64,13.31,51.01,3.36,2020-03-15
Tegul'det,100,RU,2020-03-15 18:33:53,97,57.31,88.17,32.16,8.3,2020-03-15
Hvolsvollur,90,IS,2020-03-15 18:33:53,64,63.75,-20.22,39.2,13.87,2020-03-15
Leningradskiy,98,RU,2020-03-15 18:33:53,70,69.38,178.42,14.7,12.35,2020-03-15
Kaseda-shirakame,40,JP,2020-03-15 18:33:53,62,31.42,130.32,47.46,22.5,2020-03-15
Kysyl-Syr,100,RU,2020-03-15 18:33:53,94,63.9,122.76,2.46,12.91,2020-03-15
Bac Lieu,58,VN,2020-03-15 18:33:53,81,9.29,105.72,77.7,7.54,2020-03-15
Salinópolis,100,BR,2020-03-15 18:33:54,87,-0.61,-47.36,78.24,5.82,2020-03-15
Kalabo,50,ZM,2020-03-15 18:31:51,85,-14.97,22.68,70.86,4.27,2020-03-15
Tynda,44,RU,2020-03-15 18:33:54,99,55.17,124.72,-2.58,1.74,2020-03-15
Kabanjahe,40,ID,2020-03-15 18:33:54,88,3.1,98.49,82.4,5.82,2020-03-15
Abnūb,0,EG,2020-03-15 18:33:54,56,27.27,31.15,71.6,11.41,2020-03-15
Kosa,67,RU,2020-03-15 18:33:54,94,59.94,55.0,12.9,4.85,2020-03-15
Jackson,40,US,2020-03-15 18:32:55,69,42.42,-122.83,44.01,1.72,2020-03-15
Severo-Yeniseyskiy,92,RU,2020-03-15 18:33:55,91,60.37,93.04,28.56,12.12,2020-03-15
Puerto Escondido,5,MX,2020-03-15 18:33:55,70,15.85,-97.07,84.2,9.17,2020-03-15
São Félix do Xingu,100,BR,2020-03-15 18:33:55,98,-6.64,-51.99,72.3,2.75,2020-03-15
Deputatsky,0,RU,2020-03-15 18:33:55,84,69.3,139.9,-31.2,0.87,2020-03-15
Kathmandu,20,NP,2020-03-15 18:32:31,66,27.72,85.32,51.8,2.24,2020-03-15
Agadez,0,NE,2020-03-15 18:29:35,10,19.75,10.25,71.94,4.65,2020-03-15
Port Augusta,0,AU,2020-03-15 18:33:56,81,-32.5,137.77,59.0,9.17,2020-03-15
Oktyabr'skoye,90,RU,2020-03-15 18:33:56,100,43.06,44.74,41.0,2.24,2020-03-15
Maragogi,71,BR,2020-03-15 18:32:00,74,-9.01,-35.22,83.28,11.9,2020-03-15
Ugoofaaru,3,MV,2020-03-15 18:33:56,75,5.67,73.0,83.64,9.66,2020-03-15
Ulaangom,100,MN,2020-03-15 18:33:56,97,49.98,92.07,3.72,0.51,2020-03-15
Mil'kovo,100,RU,2020-03-15 18:33:56,95,54.72,158.62,11.46,10.83,2020-03-15
Rørvik,75,NO,2020-03-15 18:29:49,80,64.86,11.24,33.8,19.46,2020-03-15
Øksfjord,42,NO,2020-03-15 18:33:57,62,70.24,22.35,23.0,10.29,2020-03-15
Komsomolets,0,KZ,2020-03-15 18:33:57,83,53.75,62.07,30.36,8.39,2020-03-15
Gebre Guracha,40,ET,2020-03-15 18:33:57,55,9.8,38.4,72.12,4.41,2020-03-15
Beidao,99,CN,2020-03-15 18:33:57,48,34.57,105.89,43.86,1.79,2020-03-15
Alberton,0,CA,2020-03-15 18:33:58,21,46.82,-64.07,28.0,12.84,2020-03-15
Rundu,100,NA,2020-03-15 18:33:58,94,-17.93,19.77,69.8,5.82,2020-03-15
Nuevitas,75,CU,2020-03-15 18:33:58,42,21.55,-77.26,86.0,16.11,2020-03-15
Monywa,67,MM,2020-03-15 18:33:58,27,22.12,95.13,82.38,7.56,2020-03-15
Lumphat,60,KH,2020-03-15 18:33:58,68,13.49,106.98,76.44,9.69,2020-03-15
Oruzgan,100,AF,2020-03-15 18:33:58,44,32.83,66.0,50.88,0.49,2020-03-15
Tabas,99,IR,2020-03-15 18:33:59,49,33.6,56.92,65.46,4.16,2020-03-15
Iguape,1,BR,2020-03-15 18:33:59,52,-24.71,-47.56,89.4,6.53,2020-03-15
Finote Selam,91,ET,2020-03-15 18:33:59,52,10.7,37.27,68.34,4.38,2020-03-15
Bafra,90,TR,2020-03-15 18:33:59,87,41.57,35.91,44.6,2.24,2020-03-15
Nouakchott,0,MR,2020-03-15 18:31:48,53,18.09,-15.98,77.0,24.16,2020-03-15
Sumenep,32,ID,2020-03-15 18:34:00,74,-7.02,113.87,81.48,2.19,2020-03-15
Poum,100,NC,2020-03-15 18:33:53,78,-20.23,164.02,82.74,23.26,2020-03-15
Dubrovka,75,RU,2020-03-15 18:34:00,53,53.69,33.51,28.2,11.1,2020-03-15
Okato,0,NZ,2020-03-15 18:34:00,77,-39.2,173.88,50.0,5.99,2020-03-15
Fargo,1,US,2020-03-15 18:34:00,89,46.88,-96.79,32.0,10.29,2020-03-15
Aligoodarz,87,IR,2020-03-15 18:34:01,83,33.4,49.69,40.98,3.98,2020-03-15
Pangai,75,TO,2020-03-15 18:34:01,94,-19.8,-174.35,80.6,5.82,2020-03-15
Traverse City,20,US,2020-03-15 18:34:01,43,44.76,-85.62,41.0,10.29,2020-03-15
Rovnoye,41,RU,2020-03-15 18:34:01,60,50.78,46.05,30.36,21.43,2020-03-15
Houston,90,US,2020-03-15 18:32:40,74,29.76,-95.36,81.0,6.93,2020-03-15
Marsh Harbour,0,BS,2020-03-15 18:34:02,69,26.54,-77.06,73.38,8.7,2020-03-15
Vredendal,0,ZA,2020-03-15 18:34:02,51,-31.67,18.5,70.86,12.41,2020-03-15
Rafaela,98,AR,2020-03-15 18:34:02,81,-31.25,-61.49,68.0,4.0,2020-03-15
Nome,90,US,2020-03-15 18:34:03,92,64.5,-165.41,30.2,12.75,2020-03-15
Vila Velha,20,BR,2020-03-15 18:29:56,66,-20.33,-40.29,86.0,12.75,2020-03-15
Fairbanks,90,US,2020-03-15 18:30:02,92,64.84,-147.72,27.0,1.92,2020-03-15
Charters Towers,24,AU,2020-03-15 18:34:03,81,-20.1,146.27,67.98,2.42,2020-03-15
Hamilton,90,US,2020-03-15 18:30:07,76,39.18,-84.53,45.0,6.93,2020-03-15
Birjand,83,IR,2020-03-15 18:31:42,49,32.87,59.22,55.56,1.68,2020-03-15
Hanzhong,93,CN,2020-03-15 18:34:05,56,33.07,107.03,55.56,2.62,2020-03-15
Verkhniy Lomov,100,RU,2020-03-15 18:34:05,94,53.47,43.55,27.84,17.11,2020-03-15
Ishigaki,0,JP,2020-03-15 18:34:05,56,24.34,124.16,64.02,14.0,2020-03-15
Buala,100,SB,2020-03-15 18:34:06,85,-8.14,159.59,80.04,8.68,2020-03-15
Katherine,0,AU,2020-03-15 18:34:06,78,-14.47,132.27,75.2,4.9,2020-03-15
Uyemskiy,20,RU,2020-03-15 18:31:22,58,64.47,40.85,24.8,8.95,2020-03-15
Werda,0,BW,2020-03-15 18:34:06,24,-25.27,23.28,79.86,3.33,2020-03-15
Bereket,67,TM,2020-03-15 18:34:07,70,39.24,55.52,51.42,9.91,2020-03-15
Sohag,1,EG,2020-03-15 18:34:07,41,26.56,31.69,75.2,11.41,2020-03-15
Chioggia,0,IT,2020-03-15 18:34:07,61,45.23,12.29,52.0,1.12,2020-03-15
Bāndarban,0,BD,2020-03-15 18:34:08,63,22.2,92.23,69.24,3.83,2020-03-15
Druzhba,100,UA,2020-03-15 18:34:08,49,52.04,33.95,30.36,13.13,2020-03-15
Nova Granada,75,BR,2020-03-15 18:34:08,38,-20.53,-49.31,91.4,3.36,2020-03-15
Kununurra,0,AU,2020-03-15 18:34:09,88,-15.77,128.73,71.6,5.66,2020-03-15
Palana,100,RU,2020-03-15 18:34:09,75,59.12,159.97,8.94,6.53,2020-03-15
Kawalu,98,ID,2020-03-15 18:34:09,95,-7.38,108.21,71.04,2.51,2020-03-15
Lensk,100,RU,2020-03-15 18:34:09,93,60.73,114.93,30.0,9.51,2020-03-15
Cascais,75,PT,2020-03-15 18:32:02,71,38.7,-9.42,55.99,19.46,2020-03-15
Tarko-Sale,82,RU,2020-03-15 18:34:10,87,64.92,77.78,-5.1,8.97,2020-03-15
Zheleznodorozhnyy,40,RU,2020-03-15 18:34:10,68,55.75,38.0,28.0,8.95,2020-03-15
Mogadishu,0,SO,2020-03-15 18:34:10,82,2.04,45.34,82.92,21.85,2020-03-15
Mufumbwe,47,ZM,2020-03-15 18:34:11,96,-13.68,24.8,67.26,2.33,2020-03-15
Pāli,95,IN,2020-03-15 18:34:11,30,25.77,73.33,67.8,10.83,2020-03-15
Vryburg,48,ZA,2020-03-15 18:34:11,28,-26.96,24.73,76.62,6.17,2020-03-15
Korsholm,90,FI,2020-03-15 18:34:12,100,63.11,21.68,34.0,19.46,2020-03-15
Biak,66,ID,2020-03-15 18:34:12,75,-0.91,122.88,81.48,5.55,2020-03-15
Cururupu,99,BR,2020-03-15 18:34:12,94,-1.83,-44.87,79.5,2.68,2020-03-15
Wanxian,100,CN,2020-03-15 18:29:24,69,30.8,108.39,56.82,2.64,2020-03-15
Morón,40,AR,2020-03-15 18:34:12,56,-34.65,-58.62,78.01,6.93,2020-03-15
Rāmānuj Ganj,96,IN,2020-03-15 18:34:13,60,23.8,83.7,69.24,1.36,2020-03-15
Inhambane,20,MZ,2020-03-15 18:34:13,74,-23.86,35.38,80.6,4.7,2020-03-15
Yudong,90,CN,2020-03-15 18:34:13,82,29.39,106.52,57.2,2.24,2020-03-15
Thunder Bay,90,CA,2020-03-15 18:29:39,73,48.4,-89.32,28.99,10.29,2020-03-15
Columbia,75,US,2020-03-15 18:29:41,72,34.0,-81.03,69.8,8.05,2020-03-15
Morgan City,75,US,2020-03-15 18:34:14,65,29.7,-91.21,84.0,3.36,2020-03-15
Otjimbingwe,5,NA,2020-03-15 18:34:14,26,-22.35,16.13,80.4,9.53,2020-03-15
Terra Rica,18,BR,2020-03-15 18:34:14,57,-22.71,-52.62,87.78,4.38,2020-03-15
Mitú,44,CO,2020-03-15 18:34:14,40,1.2,-70.17,96.6,3.31,2020-03-15
Araouane,4,ML,2020-03-15 18:34:15,7,18.9,-3.53,88.32,4.05,2020-03-15
