City,Cloudiness,Country,Date,Humidity,Lat,Lng,Max Temp,Wind Speed
Mahébourg,40,MU,1584135073,94,-20.41,57.7,75.0,3.36
Tuktoyaktuk,75,CA,1584135073,85,69.45,-133.04,17.6,25.28
Manta,20,EC,1584135073,66,-0.95,-80.73,84.2,11.41
Kwang Binh,90,VN,1584135073,96,17.48,106.6,73.49,4.56
Jamestown,1,US,1584135073,48,42.1,-79.24,46.4,27.51
Dikson,100,RU,1584135074,96,73.51,80.55,30.65,24.25
Los Llanos de Aridane,75,ES,1584134660,72,28.66,-17.92,66.2,14.99
Barrow,90,US,1584134680,86,71.29,-156.79,26.6,36.91
Cap Malheureux,40,MU,1584135074,94,-19.98,57.61,75.0,3.36
Saint Anthony,1,US,1584134685,47,45.02,-93.22,39.2,13.87
Hobart,20,AU,1584134405,57,-42.88,147.33,50.0,13.87
Port Elizabeth,0,ZA,1584134675,93,-33.92,25.57,66.2,4.7
Busselton,33,AU,1584134572,49,-33.65,115.33,66.99,14.54
Khatanga,100,RU,1584135075,63,71.97,102.5,-1.75,17.74
Mataura,1,NZ,1584134971,85,-46.19,168.86,49.37,2.13
Rikitea,12,PF,1584135075,74,-23.12,-134.97,76.55,12.12
Punta Arenas,35,CL,1584134821,41,-53.15,-70.92,57.2,12.75
Tevriz,100,RU,1584135075,92,57.51,72.4,31.73,9.42
Ushuaia,20,AR,1584135076,71,-54.8,-68.3,53.6,4.7
Torbay,40,CA,1584135076,53,47.67,-52.73,28.99,5.82
Coahuayana Viejo,75,MX,1584135076,69,18.73,-103.68,80.6,5.82
Tomatlán,100,MX,1584135076,42,19.93,-105.25,88.79,8.63
Necochea,24,AR,1584135077,48,-38.55,-58.74,88.0,15.99
Bredasdorp,0,ZA,1584135077,77,-34.53,20.04,62.6,6.93
Pangnirtung,40,CA,1584135077,75,66.15,-65.71,-18.4,5.82
Nikolskoye,20,RU,1584135077,72,59.7,30.79,32.0,11.18
Upernavik,100,GL,1584135077,96,72.79,-56.15,-10.57,5.17
Geraldton,90,AU,1584134980,35,-28.77,114.6,84.2,16.11
Castro,0,BR,1584135078,47,-24.79,-50.01,75.83,3.6
Flinders,90,AU,1584135040,72,-34.58,150.86,62.01,17.22
Muros,20,ES,1584135078,93,42.78,-9.06,55.0,8.05
Albany,1,US,1584135002,53,42.6,-73.97,55.99,17.22
Atuona,54,PF,1584134970,70,-9.8,-139.03,81.77,12.15
Leningradskiy,0,RU,1584135079,95,69.38,178.42,4.37,11.45
Mar del Plata,0,AR,1584135079,42,-38.0,-57.56,86.0,9.17
Altamira,75,BR,1584135079,66,-3.2,-52.21,86.0,3.36
Kalmar,100,SE,1584135079,100,56.66,16.36,33.01,12.75
Palmer,75,US,1584135079,58,42.16,-72.33,62.01,20.8
Jalu,0,LY,1584135014,67,29.03,21.55,59.09,12.46
Srednekolymsk,100,RU,1584135080,92,67.45,153.68,-20.47,11.56
Gao,0,ML,1584135080,11,16.64,1.64,77.81,8.99
St. Pete Beach,90,US,1584135080,65,27.73,-82.74,86.0,10.29
Nouadhibou,0,MR,1584135081,73,20.93,-17.03,69.8,9.17
Kapaa,90,US,1584135081,73,22.08,-159.32,77.0,16.11
Matara,0,LK,1584135081,85,5.95,80.54,73.31,8.1
Anloga,20,GH,1584135081,89,5.79,0.9,84.2,12.75
Villazón,86,BO,1584135081,46,-22.09,-65.59,64.13,15.39
Saurimo,100,AO,1584135081,95,-9.66,20.39,67.37,4.54
Vaini,90,TO,1584135082,94,-21.2,-175.2,75.2,18.34
Torres,5,BR,1584135082,81,-29.34,-49.73,77.99,6.38
Vila Velha,20,BR,1584135082,88,-20.33,-40.29,82.0,4.7
Fukuechō,75,JP,1584135042,66,32.69,128.84,50.0,17.22
Beira,0,MZ,1584134959,88,-19.84,34.84,77.0,4.7
San Isidro,0,PE,1584134783,69,-12.12,-77.05,80.6,13.87
Sept-Îles,90,CA,1584135083,85,50.2,-66.38,19.99,29.97
Faanui,40,PF,1584134979,77,-16.48,-151.75,83.03,14.2
Touros,75,BR,1584135083,88,-5.2,-35.46,77.0,3.36
Dunedin,0,NZ,1584135064,81,-45.87,170.5,57.0,7.0
Kokrajhar,100,IN,1584135083,48,26.4,90.27,74.75,4.47
Qaanaaq,0,GL,1584134994,47,77.48,-69.36,-23.35,2.01
Landerneau,100,FR,1584135084,93,48.45,-4.25,50.0,13.87
Khandyga,0,RU,1584135084,99,62.67,135.6,-31.45,1.7
Chokurdakh,100,RU,1584135084,97,70.63,147.92,-20.83,7.67
Hithadhoo,35,MV,1584134994,62,-0.6,73.08,83.39,8.08
Nāwa,0,IN,1584135084,38,27.02,75.0,60.35,8.7
Lexington Park,75,US,1584134985,53,38.27,-76.45,78.8,10.29
Venado Tuerto,0,AR,1584135003,32,-33.75,-61.97,96.53,8.55
Saint-Joseph,40,RE,1584135085,83,-21.37,55.62,78.8,19.46
Muzhi,100,RU,1584135085,91,65.37,64.67,32.09,12.57
Butaritari,25,KI,1584135085,72,3.07,172.79,83.21,10.07
Portland,90,US,1584135054,80,45.52,-122.68,42.01,10.29
Sitka,20,US,1584135086,31,57.05,-135.33,33.8,6.93
Nicoya,40,CR,1584135002,41,10.15,-85.45,93.2,16.11
Faya,100,SA,1584135086,55,18.39,42.45,64.4,17.22
Yellowknife,5,CA,1584135086,57,62.46,-114.35,-7.01,2.24
Kavieng,0,PG,1584135086,76,-2.57,150.8,83.57,11.68
Lompoc,90,US,1584135087,71,34.64,-120.46,59.0,4.7
Cherskiy,100,RU,1584134975,97,68.75,161.3,-13.99,11.1
Karratha,32,AU,1584135087,73,-20.74,116.85,82.67,8.39
Raja,20,SS,1584135087,18,8.46,25.68,74.75,4.07
La Libertad,19,EC,1584135088,74,-2.23,-80.9,84.2,12.75
Lavrentiya,100,RU,1584135088,91,65.58,-171.0,26.51,24.38
Vardø,26,NO,1584135088,71,70.37,31.11,14.0,27.51
Petropavlovsk-Kamchatskiy,90,RU,1584134952,97,53.05,158.65,32.0,31.32
Sur,0,OM,1584135089,35,22.57,59.53,64.49,3.76
Rocky Mountain House,100,CA,1584135001,83,52.37,-114.92,1.31,6.96
Severo-Kuril'sk,86,RU,1584135089,83,50.68,156.12,20.57,18.72
Hermanus,0,ZA,1584134990,93,-34.42,19.23,61.0,10.04
Kalāleh,100,IR,1584135089,93,37.38,55.49,46.4,3.8
Hofn,39,IS,1584135026,70,64.25,-15.21,40.19,23.51
Port Lincoln,83,AU,1584135090,73,-34.73,135.87,57.29,19.17
Clarence Town,0,AU,1584135090,100,-32.58,151.78,64.99,3.0
Talnakh,90,RU,1584135039,92,69.49,88.4,26.6,31.32
Laas,62,IT,1584135071,30,46.62,10.7,55.4,5.82
Fairbanks,20,US,1584135025,61,64.84,-147.72,19.99,3.36
Cape Town,75,ZA,1584134953,100,-33.93,18.42,62.01,1.12
Berlevåg,75,NO,1584135091,85,70.86,29.09,23.0,24.16
Mount Isa,0,AU,1584135034,49,-20.73,139.5,71.6,6.93
Am Timan,67,TD,1584135091,9,11.03,20.28,75.83,5.59
College,20,US,1584135091,61,64.86,-147.8,19.99,3.36
East London,4,ZA,1584135034,84,-33.02,27.91,76.01,9.35
Amparafaravola,100,MG,1584135092,87,-17.58,48.22,65.93,9.04
São Filipe,33,CV,1584134992,59,14.9,-24.5,75.29,5.48
Sidhi,87,IN,1584135092,82,24.42,81.88,67.73,3.89
Henties Bay,0,NA,1584135092,91,-22.12,14.28,64.0,1.01
Clyde River,40,CA,1584135092,75,70.47,-68.59,-13.0,12.75
Koslan,95,RU,1584135093,94,63.46,48.9,29.39,4.88
Evensk,0,RU,1584135093,66,61.95,159.23,-15.07,12.44
Alofi,75,NU,1584135033,83,-19.06,-169.92,82.4,8.05
Saldanha,0,ZA,1584134823,82,-33.01,17.94,64.4,2.24
Misratah,86,LY,1584135093,74,32.38,15.09,61.97,2.28
Aklavik,90,CA,1584135093,67,68.22,-135.01,23.0,2.24
Barkot,100,IN,1584135093,97,30.82,78.2,35.87,4.68
Bārmer,0,IN,1584135094,34,25.75,71.38,66.47,9.01
Vetlanda,0,SE,1584135094,80,57.43,15.08,30.2,11.41
Airai,54,TL,1584135094,64,-8.93,125.41,64.31,2.3
Ambilobe,100,MG,1584135094,93,-13.2,49.05,76.73,3.31
Bac Lieu,100,VN,1584135015,91,9.29,105.72,75.11,3.71
Bosaso,41,SO,1584135095,84,11.28,49.18,77.27,21.9
Asău,75,RO,1584135095,93,46.43,26.4,45.0,10.29
Klaksvík,100,FO,1584135095,65,62.23,-6.59,41.0,27.51
Topolobampo,90,MX,1584135095,57,25.6,-109.05,80.01,16.11
Narsaq,100,GL,1584135095,53,60.92,-46.05,23.0,2.24
Puerto Madryn,58,AR,1584135096,34,-42.77,-65.04,73.31,56.04
George Town,40,MY,1584134853,94,5.41,100.34,82.0,2.24
Kavaratti,32,IN,1584135096,81,10.57,72.64,80.87,16.58
Inhambane,33,MZ,1584135096,81,-23.86,35.38,78.71,9.84
Sioux Lookout,90,CA,1584135096,66,50.1,-91.92,17.6,19.46
Tahoua,0,NE,1584135097,14,14.89,5.27,82.4,6.93
New Norfolk,20,AU,1584134995,53,-42.78,147.06,50.0,12.75
Hong Kong,75,HK,1584134938,82,22.29,114.16,68.0,13.87
Mehamn,40,NO,1584135097,79,71.04,27.85,23.0,26.4
Ancud,75,CL,1584135097,67,-41.87,-73.82,57.2,12.75
Cidreira,0,BR,1584135006,87,-30.18,-50.21,77.27,8.01
Cockburn Town,40,TC,1584135098,73,21.46,-71.14,77.0,11.41
Port Alfred,26,ZA,1584135098,94,-33.59,26.89,66.99,1.01
Lebu,73,CL,1584135098,56,-37.62,-73.65,66.83,8.03
Eshowe,94,ZA,1584135098,94,-28.89,31.47,71.69,4.85
Bluff,6,NZ,1584134665,89,-46.6,168.33,48.83,4.16
Westport,20,US,1584135032,52,41.14,-73.36,71.6,13.87
Marawi,6,PH,1584135099,84,8.0,124.29,72.0,8.01
Quatre Cocos,40,MU,1584135099,94,-20.21,57.76,75.0,3.36
Bethel,1,US,1584135099,32,41.37,-73.41,69.01,20.8
Ribeira Grande,20,PT,1584135100,77,38.52,-28.7,60.8,3.36
Iquitos,75,PE,1584135100,100,-3.75,-73.25,42.8,8.05
Arrondissement de Riom,3,FR,1584135100,74,45.92,2.92,41.0,2.24
Safaga,45,EG,1584135100,40,26.73,33.94,68.0,13.87
Half Moon Bay,75,US,1584135101,76,37.46,-122.43,68.0,16.11
Batemans Bay,100,AU,1584134845,92,-35.72,150.18,55.99,5.06
Kaitangata,0,NZ,1584135101,85,-46.28,169.85,52.07,6.11
Saskylakh,0,RU,1584135101,97,71.92,114.08,-22.99,8.77
Puerto Ayora,20,EC,1584135101,70,-0.74,-90.35,84.2,8.05
Saint Paul Harbor,1,US,1584134920,69,57.79,-152.41,33.8,4.7
Cabra,100,ES,1584135102,82,37.47,-4.44,61.0,4.7
Gambiran,100,ID,1584135102,92,-6.8,111.5,74.75,2.15
Uray,100,RU,1584135102,92,60.12,64.78,35.87,15.64
Tegul'det,27,RU,1584135102,93,57.31,88.17,21.65,6.62
Arraial do Cabo,40,BR,1584135102,78,-22.97,-42.03,80.6,11.41
Camaná,64,PE,1584134935,71,-16.62,-72.71,71.87,9.6
Yerbogachën,95,RU,1584135103,90,61.28,108.01,-8.59,4.59
Avarua,67,CK,1584134992,70,-21.21,-159.78,84.2,5.82
Okha,0,RU,1584135103,98,53.57,142.95,-8.05,9.64
Kudahuvadhoo,5,MV,1584135103,79,2.67,72.89,82.85,10.98
Piopio,0,NZ,1584135103,58,-38.47,175.02,62.33,0.83
West Point,90,US,1584135104,82,33.61,-88.65,63.0,6.93
Gushikawa,90,JP,1584135104,91,26.35,127.87,66.2,3.36
Abbeville,73,FR,1584135104,87,50.1,1.83,44.6,4.65
Fortuna,20,US,1584135104,76,40.6,-124.16,55.99,17.22
Palana,100,RU,1584134999,77,59.12,159.97,12.29,9.13
Bhattiprolu,0,IN,1584135104,86,16.1,80.78,73.13,2.98
Chui,0,UY,1584135105,66,-33.7,-53.46,77.09,11.95
Hasaki,75,JP,1584134989,75,35.73,140.83,46.4,12.75
Dakoro,0,NE,1584135105,14,14.51,6.76,70.97,10.67
Maragogi,37,BR,1584135105,74,-9.01,-35.22,81.77,12.86
Witu,100,KE,1584135105,83,-2.39,40.44,82.13,9.66
Puck,75,PL,1584135106,88,54.72,18.41,36.0,23.04
Sisimiut,100,GL,1584135106,93,66.94,-53.67,0.23,4.83
Kruisfontein,0,ZA,1584135106,93,-34.0,24.73,65.39,0.94
Salalah,100,OM,1584135106,57,17.02,54.09,75.2,62.19
Okhotsk,45,RU,1584135106,79,59.38,143.3,-7.33,6.78
Aksay,32,RU,1584135106,75,47.26,39.87,45.0,2.24
Maebaru-chūō,75,JP,1584135106,93,33.55,130.2,50.0,5.82
Grand-Santi,97,GF,1584135107,40,4.25,-54.38,92.21,2.73
Saint George,75,US,1584135107,81,37.1,-113.58,52.0,6.93
North Bend,90,US,1584135108,81,43.41,-124.22,54.0,4.7
Kishtwār,100,IN,1584135108,95,33.32,75.77,16.07,2.98
Wanning,92,CN,1584135106,96,18.8,110.4,73.49,3.09
Hilo,40,US,1584134978,69,19.73,-155.09,80.6,10.29
Bilma,0,NE,1584135108,22,18.69,12.92,62.69,4.03
Itaituba,20,BR,1584135108,63,-4.28,-55.98,91.4,5.82
Dire Dawa,0,ET,1584135108,49,9.59,41.87,68.99,20.0
Peniche,20,PT,1584135109,87,39.36,-9.38,57.0,8.05
Opuwo,0,NA,1584135109,43,-18.06,13.84,70.61,3.36
Kashgar,20,CN,1584135109,25,39.45,75.98,41.0,8.95
Conde,40,BR,1584135109,83,-7.26,-34.91,80.6,9.17
Lethem,74,GY,1584135109,28,3.38,-59.8,100.67,12.06
Katsuura,75,JP,1584134984,76,35.13,140.3,50.0,18.34
Pontianak,100,ID,1584135110,96,-0.03,109.33,74.21,1.59
‘Āhuimanu,75,US,1584135110,65,21.44,-157.84,78.8,10.29
Atherton,75,GB,1584135110,81,53.52,-2.49,44.01,5.82
Cataguases,3,BR,1584135110,92,-21.39,-42.7,74.39,4.72
Provideniya,100,RU,1584135018,97,64.38,-173.3,25.43,21.41
Bontang,82,ID,1584135111,83,0.13,117.5,79.61,12.57
San Patricio,40,MX,1584134988,74,19.22,-104.7,84.2,9.17
Benguela,100,AO,1584135025,83,-12.58,13.41,79.43,5.93
Bambous Virieux,40,MU,1584135111,94,-20.34,57.76,75.0,3.36
Carnarvon,75,AU,1584135111,100,-24.87,113.63,78.8,10.29
Umm Kaddadah,39,SD,1584135111,20,13.6,26.69,69.89,12.8
Pisco,0,PE,1584134994,30,-13.7,-76.22,75.0,25.28
Morehead,75,US,1584135112,43,37.27,-87.18,52.0,4.7
Fort Nelson,20,CA,1584135112,46,58.81,-122.7,8.6,2.24
Camopi,89,GF,1584135112,79,3.17,-52.32,79.97,4.97
Osakarovka,23,KZ,1584135112,79,50.56,72.57,15.71,13.49
Macusani,100,PE,1584135112,88,-14.08,-70.43,40.19,8.9
Souillac,40,MU,1584135112,94,-20.52,57.52,75.0,3.36
Prymors'k,94,UA,1584135113,71,46.73,36.34,48.83,11.23
Ürümqi,67,CN,1584135009,74,43.8,87.6,30.2,6.71
Patan,40,NP,1584135113,93,27.67,85.33,51.8,4.76
Švenčionys,100,LT,1584135113,84,55.15,26.17,35.15,7.56
Huarmey,24,PE,1584135113,50,-10.07,-78.15,81.41,8.52
Sorong,100,ID,1584135114,99,-0.88,131.25,73.85,3.18
Tsagan Aman,70,RU,1584135114,61,47.56,46.72,50.81,12.68
Sibolga,0,ID,1584135114,94,1.74,98.78,72.59,2.91
Manaure,20,CO,1584135114,74,11.78,-72.44,82.4,16.11
Esperance,90,AU,1584135114,100,-33.87,121.9,60.8,10.29
Kumul,40,CN,1584135057,24,42.8,93.45,32.45,1.66
Techiman,100,GH,1584135115,69,7.59,-1.94,81.05,6.89
Pandan,0,PH,1584135115,81,14.05,124.17,77.99,6.13
Coquimbo,75,CL,1584135115,77,-29.95,-71.34,66.2,12.75
Kingston,20,JM,1584135115,58,18.0,-76.79,86.0,4.7
Saint-Philippe,40,RE,1584135115,83,-21.36,55.77,78.8,19.46
Hambantota,0,LK,1584135052,80,6.12,81.12,78.71,17.38
Riyadh,100,SA,1584135009,14,24.69,46.72,77.0,6.93
Staraya Poltavka,100,RU,1584135116,76,50.48,46.48,50.81,11.92
Iporá,30,BR,1584135116,81,-16.44,-51.12,79.43,6.85
Tasiilaq,100,GL,1584135116,66,65.61,-37.64,12.2,1.12
Marsh Harbour,12,BS,1584135116,81,26.54,-77.06,74.03,14.27
Ponta do Sol,75,PT,1584135117,82,32.67,-17.1,59.0,16.11
Kologriv,100,RU,1584135117,87,58.83,44.32,34.07,12.66
Jiayuguan City,4,CN,1584135117,58,39.82,98.3,24.35,5.59
Sambava,100,MG,1584135117,98,-14.27,50.17,72.59,2.75
Hazorasp,0,UZ,1584135117,81,41.32,61.07,44.6,4.7
Padang,0,ID,1584135118,95,-0.95,100.35,68.09,4.63
Avera,90,US,1584135118,57,33.19,-82.53,82.0,8.05
Mangochi,100,MW,1584135118,94,-14.48,35.26,66.65,2.77
Pringsewu,100,ID,1584135118,95,-5.36,104.97,72.41,0.63
Coyhaique,75,CL,1584135118,62,-45.58,-72.07,55.4,5.82
Codrington,52,AU,1584135118,67,-38.27,141.97,56.57,20.87
Tsumeb,99,NA,1584135119,55,-19.23,17.72,76.91,3.38
Mbulu,100,TZ,1584135119,99,-3.85,35.53,58.91,1.3
Grindavik,75,IS,1584135119,79,63.84,-22.43,28.4,13.87
Meulaboh,2,ID,1584135119,78,4.14,96.13,82.13,5.14
Dvinskoy,100,RU,1584135119,92,62.15,45.12,32.27,8.66
Lata,20,PT,1584134977,87,40.16,-8.33,55.99,8.05
Prince Rupert,1,CA,1584135021,34,54.32,-130.32,37.4,14.99
Dingle,47,PH,1584135047,92,11.0,122.67,72.77,7.65
Brae,68,GB,1584135120,64,60.4,-1.35,37.4,11.41
Mackay,40,AU,1584135120,73,-21.15,149.2,79.0,13.87
Gizo Government Station,70,SB,1584135120,84,-8.1,156.84,79.79,14.25
Kampot,20,KH,1584135120,88,10.62,104.18,77.0,2.24
Guerrero Negro,25,MX,1584135121,51,27.98,-114.06,68.63,9.01
Broken Hill,0,AU,1584135121,57,-31.95,141.43,51.8,26.4
Yar-Sale,45,RU,1584135121,87,66.83,70.83,29.21,19.91
Ostuni,90,IT,1584135122,93,40.73,17.58,60.01,5.82
Longyearbyen,40,SJ,1584134989,58,78.22,15.64,-5.8,16.11
Puerto Madero,75,MX,1584135122,62,14.72,-92.42,87.8,11.41
Norman Wells,90,CA,1584134665,59,65.28,-126.83,1.4,12.75
Tuatapere,3,NZ,1584135122,70,-46.13,167.68,52.97,1.7
Amarante do Maranhão,100,BR,1584135123,93,-5.57,-46.74,78.17,3.38
Antofagasta,75,CL,1584135123,68,-23.65,-70.4,72.0,13.87
Port-Cartier,90,CA,1584135123,85,50.03,-66.87,19.99,29.97
Guarapari,20,BR,1584135120,88,-20.67,-40.5,82.0,4.7
São Domingos,100,BR,1584135123,91,-13.4,-46.32,74.03,0.27
Abadzekhskaya,0,RU,1584135124,60,44.39,40.22,51.35,2.93
Beringovskiy,100,RU,1584135124,90,63.05,179.32,26.87,8.75
Dali,0,CN,1584135124,62,25.7,100.18,44.69,3.49
Chuka,40,KE,1584135124,89,-0.33,37.65,64.13,2.73
Thompson,75,CA,1584134972,43,55.74,-97.86,10.4,9.17
Ashland,1,US,1584135124,45,40.82,-82.27,50.0,17.22
Cabo San Lucas,40,MX,1584135004,61,22.89,-109.91,82.99,12.75
Khuzhir,100,RU,1584135125,87,53.19,107.34,24.53,10.16
Pacific Grove,75,US,1584134940,63,36.62,-121.92,62.6,13.87
Volary,0,CZ,1584135125,65,48.91,13.89,42.01,5.01
Lac du Bonnet,100,CA,1584135125,67,50.25,-96.06,16.0,13.0
Mandera,57,KE,1584135125,31,3.94,41.87,88.07,10.2
Bubaque,0,GW,1584134666,71,11.28,-15.83,81.77,13.78
Ayacucho,75,PE,1584135126,25,-13.16,-74.22,77.0,6.93
Nchelenge,100,ZM,1584135126,87,-9.35,28.73,72.23,8.79
Yichang,100,CN,1584135126,67,30.71,111.28,52.97,2.55
Taltal,60,CL,1584135126,68,-25.4,-70.48,69.17,8.99
Sahuaripa,14,MX,1584135126,50,29.05,-109.23,67.55,18.63
Goianésia,28,BR,1584135127,88,-15.32,-49.12,76.37,1.57
Wakkanai,97,JP,1584135127,61,45.41,141.67,28.85,16.2
Farafangana,15,MG,1584135127,81,-22.82,47.83,79.61,18.95
Sinnamary,92,GF,1584135127,75,5.38,-52.95,80.15,13.44
Progreso,5,MX,1584135127,26,21.28,-89.67,96.01,11.41
Linjiang,13,CN,1584135128,88,41.81,126.91,7.97,4.68
Loreto,19,MX,1584135128,19,22.27,-101.97,80.15,7.47
Ambunti,100,PG,1584135128,99,-4.24,142.84,74.03,2.13
Mana,66,GF,1584135128,68,5.66,-53.78,80.87,7.31
Moa,0,CU,1584135128,62,20.66,-74.94,77.27,6.69
Lugo,8,ES,1584135128,93,43.0,-7.5,50.0,5.01
Raahe,32,FI,1584135129,67,64.68,24.48,19.4,12.75
Malyn,90,UA,1584135129,70,50.77,29.24,42.8,11.18
Kambove,100,CD,1584135129,98,-10.88,26.6,61.79,1.9
Anlu,69,CN,1584135129,68,31.17,112.58,46.85,2.93
Pevek,100,RU,1584135129,81,69.7,170.31,-3.91,10.6
Ahipara,0,NZ,1584135008,71,-35.17,173.17,65.93,14.5
Zalesovo,100,RU,1584135130,88,53.99,84.74,18.41,5.28
Northam,75,GB,1584135130,93,51.03,-4.22,46.99,13.87
Hirara,69,JP,1584135130,91,24.8,125.28,68.99,22.48
Mayo,1,US,1584135029,40,38.89,-76.51,73.4,11.41
Det Udom,87,TH,1584135131,94,14.91,105.08,91.99,2.24
Ruwi,13,OM,1584135131,77,23.6,58.55,68.0,4.7
Bengkulu,22,ID,1584135131,88,-3.8,102.27,74.93,2.62
Mareeba,91,AU,1584135085,83,-17.0,145.43,77.0,2.24
Naze,90,JP,1584135034,88,28.37,129.48,66.2,14.99
Bentiu,100,SS,1584135132,17,9.23,29.83,85.19,1.77
Nome,90,US,1584135132,92,64.5,-165.41,21.2,12.75
Makkah al Mukarramah,58,SA,1584135132,64,21.43,39.83,68.27,4.38
Deputatsky,0,RU,1584135132,73,69.3,139.9,-25.87,2.53
Alyangula,90,AU,1584135132,100,-13.85,136.42,77.0,3.51
Nanortalik,100,GL,1584135132,70,60.14,-45.24,22.91,16.42
Rocha,0,UY,1584135023,48,-34.48,-54.33,79.61,14.54
Yagodnoye,83,RU,1584135133,100,62.55,149.67,-22.09,0.72
Lorengau,39,PG,1584135133,77,-2.02,147.27,83.93,11.43
Birao,100,CF,1584135133,13,10.28,22.79,77.09,7.09
Havelock,75,US,1584134854,64,34.88,-76.9,75.2,8.05
Denpasar,40,ID,1584135133,100,-8.65,115.22,77.0,3.36
Along,45,IN,1584135133,80,28.17,94.77,57.65,4.27
Sola,75,VU,1584135022,83,-13.88,167.55,82.4,20.36
Vao,100,NC,1584135134,78,-22.67,167.48,81.41,13.2
Plettenberg Bay,1,ZA,1584135134,94,-34.05,23.37,66.11,5.14
Keuruu,0,FI,1584135134,79,62.27,24.7,21.99,5.82
Samarai,100,PG,1584135134,77,-10.62,150.67,77.99,9.06
Khingansk,100,RU,1584135135,97,49.12,131.18,5.45,1.61
Lagoa,20,PT,1584134986,64,39.05,-27.98,59.99,2.46
Santa Flavia,100,IT,1584135135,82,38.09,13.54,59.0,2.24
Osypenko,98,UA,1584135135,71,46.91,36.83,48.65,6.96
Makurdi,98,NG,1584135135,9,7.74,8.51,85.19,4.27
Catuday,97,PH,1584135135,79,16.29,119.81,81.05,15.28
Kralendijk,0,BQ,1584135136,58,12.15,-68.27,84.2,14.99
Otavi,39,NA,1584135136,53,-19.65,17.33,73.13,3.67
Ilulissat,100,GL,1584135136,50,69.22,-51.1,6.8,11.41
Cedar City,90,US,1584135136,93,37.68,-113.06,37.4,17.22
Ierapetra,0,GR,1584135136,67,35.01,25.74,63.0,3.36
Iqaluit,40,CA,1584135137,69,63.75,-68.51,-13.0,16.11
Caravelas,100,BR,1584135137,77,-17.71,-39.25,81.41,9.13
Port Blair,0,IN,1584135118,69,11.67,92.75,80.69,7.78
Aojiang,100,CN,1584135137,75,22.94,116.04,68.0,3.0
Port Hardy,20,CA,1584135137,33,50.7,-127.42,42.8,8.05
Abhā,71,SA,1584135137,55,18.22,42.51,64.4,17.22
Margate,66,GB,1584135137,80,51.38,1.39,46.4,6.93
Gumdag,58,TM,1584135138,68,39.21,54.59,53.33,3.06
Flin Flon,20,CA,1584135138,51,54.77,-101.86,10.4,13.87
Portales,75,US,1584135138,100,34.19,-103.33,48.2,19.46
Kiryat Gat,75,IL,1584135125,93,31.61,34.76,57.99,24.16
Dzhebariki-Khaya,0,RU,1584135138,96,62.22,135.8,-31.09,0.27
Cervo,100,ES,1584135138,1,43.67,-7.41,52.0,1.57
Skellefteå,0,SE,1584135060,53,64.75,20.95,21.2,14.99
Batangafo,100,CF,1584135139,11,7.3,18.28,77.81,2.39
Shelburne,90,CA,1584135139,48,44.08,-80.2,42.01,14.99
Tromsø,75,NO,1584135139,79,69.65,18.96,23.0,9.17
Esim,100,GH,1584135139,90,4.87,-2.24,79.43,3.69
Bayan,0,CN,1584134977,87,46.08,127.4,12.29,6.24
Fasa,70,IR,1584134841,33,28.94,53.65,46.4,3.2
Dongying,0,CN,1584135140,43,37.46,118.49,42.89,13.67
Olinda,75,BR,1584135140,62,-8.01,-34.86,86.0,8.05
Muncar,100,ID,1584135140,75,-8.43,114.33,81.23,1.3
Cayenne,20,GF,1584135063,74,4.93,-52.33,82.4,12.75
Shetpe,0,KZ,1584135141,47,44.17,52.12,49.19,5.88
Egvekinot,100,RU,1584135130,97,66.32,-179.17,16.61,7.72
Port Macquarie,5,AU,1584135141,100,-31.43,152.92,64.0,4.7
Te Anau,3,NZ,1584135141,69,-45.42,167.72,51.71,4.45
Posse,23,BR,1584134939,89,-14.09,-46.37,75.47,1.34
Zwedru,55,LR,1584135141,86,6.07,-8.13,77.45,4.29
Todos Santos,75,MX,1584134976,64,23.45,-110.22,77.0,12.75
Molokovo,40,RU,1584135142,88,58.17,36.76,33.35,12.82
Hamilton,1,US,1584135142,34,39.18,-84.53,53.01,10.29
Comodoro Rivadavia,75,AR,1584134995,60,-45.87,-67.5,68.0,5.82
Rāvar,30,IR,1584135142,14,31.27,56.81,57.47,2.64
Yangi Marg`ilon,69,UZ,1584135142,52,40.43,71.72,46.4,6.93
Tamandaré,37,BR,1584135143,74,-8.76,-35.1,81.77,12.86
Cervignano del Friuli,75,IT,1584135143,66,45.82,13.34,55.4,5.82
Firminópolis,21,BR,1584135143,92,-16.58,-50.3,76.91,4.68
Broome,1,US,1584135143,31,42.25,-75.83,51.01,18.34
Celestún,0,MX,1584135143,75,20.87,-90.4,76.73,21.97
Kaeo,1,NZ,1584135143,81,-35.1,173.78,66.0,5.01
Houma,20,US,1584135144,73,29.6,-90.72,82.4,9.17
Saint-Pierre,40,RE,1584135045,83,-21.34,55.48,78.8,19.46
Champerico,40,GT,1584134951,62,14.3,-91.92,87.8,11.41
Behat,76,IN,1584135144,78,30.17,77.62,56.39,6.46
Laguna,1,US,1584135068,45,38.42,-121.42,73.4,13.87
Sarāhan,100,IN,1584135144,94,31.52,77.8,21.47,4.94
Tigil',100,RU,1584135145,69,57.8,158.67,18.59,17.25
Cururupu,95,BR,1584135124,96,-1.83,-44.87,77.63,3.62
Havøysund,90,NO,1584135145,73,71.0,24.66,21.2,20.8
Alice Springs,0,AU,1584135145,72,-23.7,133.88,68.0,3.36
Port Pirie,0,AU,1584135145,58,-33.18,138.02,53.6,21.92
Grand Gaube,40,MU,1584134992,94,-20.01,57.66,75.0,3.36
Tyukhtet,0,RU,1584135146,88,56.54,89.3,22.55,5.75
Bonthe,4,SL,1584135070,83,7.53,-12.51,80.69,9.15
Tiksi,0,RU,1584135009,84,71.69,128.87,-24.25,2.46
Noumea,100,NC,1584135045,94,-22.28,166.46,82.0,3.36
Ramon,66,PH,1584135146,85,16.78,121.53,69.53,1.57
Vestmanna,100,FO,1584135147,65,62.16,-7.17,41.0,27.51
Cabedelo,40,BR,1584135147,83,-6.98,-34.83,80.6,9.17
Cabatuan,47,PH,1584135147,92,10.88,122.49,72.77,7.65
Portree,100,GB,1584135147,79,57.41,-6.19,42.01,11.99
Vestmannaeyjar,45,IS,1584135028,73,63.44,-20.27,31.91,10.36
Ketchikan,1,US,1584134960,19,55.34,-131.65,35.6,5.82
Nouakchott,0,MR,1584135057,64,18.09,-15.98,73.4,12.75
Andalan,13,PH,1584135148,77,5.96,121.39,80.15,7.45
Bariloche,40,AR,1584135148,46,-41.15,-71.31,53.6,20.8
Chalán,13,CO,1584135148,66,9.55,-75.31,84.29,15.9
Puerto Maldonado,94,PE,1584135149,57,-12.6,-69.18,89.33,3.67
Constitución,19,CL,1584135149,73,-35.33,-72.42,66.29,13.53
Joshīmath,100,IN,1584135149,97,30.57,79.57,30.65,1.57
Hay River,20,CA,1584134989,63,60.82,-115.8,-7.6,4.7
Tshikapa,96,CD,1584135149,93,-6.42,20.8,72.41,2.51
Mitú,100,CO,1584135149,94,1.2,-70.17,78.53,3.22
Daru,89,PG,1584135150,96,-9.08,143.21,74.93,5.46
San Francisco,20,US,1584134478,59,37.77,-122.42,69.01,25.28
Genhe,65,CN,1584135150,89,50.78,121.52,6.35,4.27
Miles City,90,US,1584135150,50,46.41,-105.84,37.99,19.46
Kununurra,55,AU,1584135147,88,-15.77,128.73,78.8,1.12
Tupik,68,RU,1584135150,84,54.43,119.93,0.77,10.67
Lüderitz,0,NA,1584135151,93,-26.65,15.16,66.2,11.41
Shirgaon,6,IN,1584135151,62,19.7,72.7,75.65,15.61
Taoudenni,0,ML,1584135151,8,22.68,-3.98,77.81,8.23
Saint-Augustin,62,CA,1584135151,87,51.23,-58.65,10.13,6.08
Konza,75,KE,1584135151,82,-1.74,37.13,69.8,4.7
Maceió,40,BR,1584134977,74,-9.67,-35.74,80.6,10.29
Nazaré,58,BR,1584135152,81,-13.04,-39.01,76.91,3.91
Christchurch,36,NZ,1584135003,82,-43.53,172.63,62.01,11.41
Tautira,40,PF,1584135065,62,-17.73,-149.15,87.8,5.82
Sol'vychegodsk,100,RU,1584135152,92,61.33,46.92,32.09,10.49
Tyrma,97,RU,1584135153,98,50.08,132.17,-0.85,1.5
Pompéia,0,BR,1584135149,65,-22.11,-50.17,76.91,8.95
Sabancuy,0,MX,1584135153,30,18.97,-91.18,95.81,4.65
Jining,0,CN,1584135153,64,35.41,116.58,44.01,1.01
Suzun,100,RU,1584135153,89,53.78,82.31,20.03,6.82
Shubarkuduk,37,KZ,1584135153,73,49.14,56.49,38.21,12.17
Waipawa,1,NZ,1584135111,72,-41.41,175.52,63.0,11.41
Yumen,100,CN,1584135154,43,40.28,97.2,27.41,11.86
Morondava,30,MG,1584135154,68,-20.28,44.28,76.19,4.9
Sanquhar,20,GB,1584135154,75,55.37,-3.92,41.0,11.41
Smithers,20,CA,1584135154,37,54.78,-127.17,19.4,8.05
Great Yarmouth,93,GB,1584135155,93,52.61,1.73,45.0,5.82
Kholtoson,0,RU,1584135155,89,50.3,103.31,9.41,3.42
Nelson Bay,0,AU,1584135147,100,-32.72,152.15,64.99,3.0
Mahon,100,ES,1584135155,81,39.89,4.27,53.6,9.17
Guiglo,0,CI,1584135155,70,6.55,-7.5,79.25,3.71
Chumikan,100,RU,1584135156,80,54.72,135.31,4.19,10.87
Anadyr,75,RU,1584135156,78,64.75,177.48,17.6,11.18
Rio Branco do Sul,0,BR,1584135156,54,-25.19,-49.31,78.8,9.17
Alibag,40,IN,1584135156,53,18.64,72.88,73.4,8.05
Huayucachi,35,PE,1584135156,78,-12.13,-75.23,48.47,7.81
Pangody,99,RU,1584135157,88,65.85,74.49,34.25,22.95
Burns Lake,0,CA,1584135002,55,54.23,-125.75,10.85,14.74
Kahului,40,US,1584135061,73,20.89,-156.47,77.0,8.05
Hernani,90,ES,1584135157,81,43.27,-1.98,53.01,2.24
Marrakesh,20,MA,1584134876,55,31.63,-8.01,66.2,8.05
Jieshou,0,CN,1584135158,94,33.26,115.36,37.67,6.33
Mabamba,100,TZ,1584135158,96,-3.6,30.5,63.41,1.39
Chapais,90,CA,1584135158,100,49.78,-74.85,30.2,11.41
Tessalit,0,ML,1584135158,13,20.2,1.01,74.39,9.04
Lubango,74,AO,1584135022,92,-14.92,13.49,61.79,3.04
Baruun-Urt,0,MN,1584135159,86,46.68,113.28,10.67,9.82
Pitimbu,40,BR,1584135159,83,-7.47,-34.81,80.6,9.17
Pangoa,88,PE,1584135159,74,-12.12,-73.0,81.95,4.07
Sittwe,32,MM,1584135159,74,20.15,92.9,74.21,6.04
Tilichiki,0,RU,1584135159,83,60.47,166.1,6.89,3.24
Laredo,1,US,1584135027,38,27.51,-99.51,95.0,12.75
Vila Franca do Campo,40,PT,1584135160,77,37.72,-25.43,59.0,4.7
Zyryanka,100,RU,1584135160,82,65.75,150.85,-21.19,2.8
Zhigansk,76,RU,1584135160,100,66.77,123.37,-14.35,4.61
Beloha,0,MG,1584135160,81,-25.17,45.05,72.59,12.82
Erenhot,32,CN,1584135160,52,43.65,111.98,26.33,11.59
Mitsamiouli,20,KM,1584135160,94,-11.38,43.28,78.8,5.82
Adolfo Ruíz Cortínes,90,MX,1584135161,57,25.75,-108.75,80.01,16.11
Puerto Escondido,40,MX,1584135161,79,15.85,-97.07,86.0,11.41
Mascote,40,BR,1584135093,78,-15.56,-39.3,82.4,2.24
Canandaigua,90,US,1584135161,56,42.87,-77.29,45.0,12.75
Cascais,20,PT,1584135068,82,38.7,-9.42,57.0,9.17
Turukhansk,100,RU,1584135141,98,65.82,87.98,32.09,22.08
Luk Pu,89,CN,1584135022,99,23.17,112.28,64.99,5.99
Bathsheba,40,BB,1584135162,69,13.22,-59.52,80.6,13.87
San Rafael del Sur,20,NI,1584135162,36,11.85,-86.44,95.0,16.11
Manokwari,100,ID,1584135162,80,-0.87,134.08,72.23,3.56
Richards Bay,100,ZA,1584135162,85,-28.78,32.04,77.45,7.07
Atambua,14,ID,1584135162,82,-9.11,124.89,71.87,4.59
Dongsheng,0,CN,1584135163,34,39.82,109.98,27.95,20.94
La Ronge,5,CA,1584135163,50,55.1,-105.28,5.0,10.29
Cape Canaveral,1,US,1584135163,65,28.41,-80.6,84.99,8.05
Ducheng,96,CN,1584135163,82,23.24,111.53,61.61,4.68
Great Falls,90,US,1584135163,79,47.5,-111.3,30.2,17.22
Vancouver,75,CA,1584135163,28,49.25,-123.12,46.99,13.87
Arrondissement de Bergerac,0,FR,1584135164,80,44.83,0.5,46.99,3.36
Bukama,83,CD,1584135039,98,-9.2,25.85,69.17,2.53
Sayyan,8,YE,1584135164,37,15.17,44.32,54.23,2.42
Mattru,14,SL,1584135164,77,7.62,-11.83,80.69,5.32
Talara,30,PE,1584135164,100,-4.58,-81.27,62.6,16.11
Moramanga,97,MG,1584135165,94,-18.93,48.2,62.33,5.06
Yining,1,CN,1584135165,90,29.04,114.56,47.93,0.96
Pasni,0,PK,1584135165,36,25.26,63.47,63.77,2.08
Yulara,0,AU,1584135146,27,-25.24,130.99,78.8,8.05
Isangel,20,VU,1584135166,83,-19.55,169.27,82.4,6.93
Morshansk,65,RU,1584135166,70,53.44,41.81,38.03,8.97
Choix,100,MX,1584135166,35,26.71,-108.32,84.47,8.43
Montrose,75,US,1584135103,70,38.42,-108.27,51.8,28.86
Panguna,81,PG,1584135166,91,-6.32,155.48,74.03,3.47
Kloulklubed,75,PW,1584135166,88,7.04,134.26,77.0,14.79
Varhaug,0,NO,1584135167,59,58.61,5.65,33.8,5.82
Shingū,100,JP,1584135167,85,33.73,135.98,52.43,10.25
Porto-Novo,40,BJ,1584135167,79,6.5,2.6,84.2,10.29
Escanaba,75,US,1584135167,47,45.75,-87.06,37.99,20.8
Kingaroy,23,AU,1584135167,87,-26.53,151.83,63.0,6.93
Līsakovsk,100,KZ,1584135167,98,52.54,62.49,34.97,15.52
Marystown,36,CA,1584135168,58,47.17,-55.15,29.03,3.15
Acapulco de Juárez,20,MX,1584135158,66,16.86,-99.89,86.0,8.05
Mbini,100,GQ,1584135012,77,1.57,9.61,83.03,4.27
Omboué,100,GA,1584135168,95,-1.57,9.26,77.99,1.54
Praia,8,CV,1584135168,44,14.92,-23.51,78.8,14.99
Ligayan,100,PH,1584135169,75,4.65,119.47,81.23,3.94
Bandarbeyla,81,SO,1584135169,81,9.49,50.81,79.07,17.27
Yamada,24,JP,1584135169,59,39.47,141.95,32.63,2.68
Sterling,1,US,1584135028,31,39.01,-77.43,73.4,18.34
Harlingen,75,US,1584134882,54,26.19,-97.7,86.0,20.8
Yaransk,100,RU,1584135169,94,57.3,47.89,35.33,17.25
Corrales,40,US,1584134911,55,35.24,-106.61,64.99,14.99
Brownfield,90,US,1584135170,64,33.18,-102.27,51.8,11.41
Kédougou,4,SN,1584135170,21,12.56,-12.17,93.2,4.7
Mvuma,0,ZW,1584135170,88,-19.28,30.53,64.67,6.02
San Juan,0,AR,1584135171,18,-31.54,-68.54,99.23,10.89
Lapi,59,PH,1584134942,95,17.72,121.9,64.67,0.98
Teknāf,16,BD,1584135171,69,20.86,92.31,67.91,1.7
Oranjestad,20,AW,1584135171,66,12.52,-70.03,84.2,19.46
Brownsville,40,US,1584134873,54,25.9,-97.5,84.2,24.16
Talaya,0,RU,1584135171,89,61.38,152.75,-23.53,2.42
Ponta Delgada,40,PT,1584135172,77,37.73,-25.67,59.0,4.7
Manavālakurichi,20,IN,1584135172,78,8.13,77.3,82.4,2.24
Teya,100,RU,1584135172,88,60.38,92.63,29.93,10.25
Ust-Tsilma,100,RU,1584135067,97,65.44,52.15,26.87,1.7
Nizhniy Baskunchak,69,RU,1584135172,70,48.22,46.83,49.91,10.87
Hervey Bay,0,AU,1584135172,77,-25.3,152.85,72.0,10.29
Gemeente Tiel,19,NL,1584135173,93,51.88,5.43,44.01,2.24
Khasan,84,RU,1584135173,61,42.43,130.64,24.53,1.34
Utete,59,TZ,1584135173,96,-7.99,38.76,75.65,1.52
Williamsburg,1,US,1584134924,44,37.27,-76.71,80.6,4.7
Santa Barbara,40,US,1584135067,76,34.42,-119.7,61.0,12.75
Koumac,100,NC,1584135174,88,-20.57,164.28,76.55,5.32
Santa Rosa,20,PH,1584135174,74,14.31,121.11,78.8,1.12
Senneterre,90,CA,1584135174,97,48.38,-77.23,33.8,11.41
Auki,76,SB,1584135174,79,-8.77,160.7,83.57,13.65
Magalia,5,US,1584135175,32,39.81,-121.58,71.6,63.31
Bahía de Caráquez,20,EC,1584135175,66,-0.6,-80.42,84.2,11.41
Nemuro,0,JP,1584135176,62,43.32,145.57,29.03,10.47
Ilebo,93,CD,1584135176,95,-4.32,20.58,69.89,1.77
Amapá,100,BR,1584135177,77,1.0,-52.0,80.51,6.44
Salta,75,AR,1584135035,54,-24.79,-65.41,86.0,5.82
Wajid,72,SO,1584135177,62,3.81,43.25,76.73,20.49
Ivankiv,90,UA,1584135177,70,50.94,29.89,43.0,11.18
Balikpapan,10,ID,1584135178,77,-1.27,116.83,81.77,14.47
Itoman,75,JP,1584135178,100,26.12,127.67,66.2,9.17
Puerto del Rosario,75,ES,1584135178,72,28.5,-13.86,66.2,19.46
Brinkovskaya,0,RU,1584135178,71,46.03,38.59,49.91,3.67
Tiarei,40,PF,1584135178,62,-17.53,-149.33,87.8,5.82
Ust-Kuyga,0,RU,1584135179,94,70.02,135.6,-30.37,1.34
Libenge,41,CD,1584135179,55,3.65,18.63,75.65,1.79
Ribnica,90,SI,1584135179,87,45.74,14.73,48.99,8.66
Skjervøy,40,NO,1584135180,67,70.03,20.97,21.2,19.46
Farnes,40,NO,1584135180,73,61.32,7.8,19.4,25.28
Shar,88,KZ,1584135180,84,49.59,81.05,24.35,9.62
Ballina,8,AU,1584135011,82,-28.87,153.57,66.2,5.82
Saýat,34,TM,1584135181,57,38.78,63.88,50.0,9.17
Upata,98,VE,1584135181,47,8.01,-62.4,86.27,5.1
Bluefield,1,US,1584135181,33,37.27,-81.22,64.4,9.17
Ekibastuz,100,KZ,1584135182,75,51.67,75.37,20.39,14.47
Gandai,98,IN,1584135182,78,21.67,81.1,73.49,2.98
Shirokiy,95,RU,1584135182,99,49.76,129.52,1.31,2.21
Deer Lake,75,CA,1584135108,32,49.17,-57.43,24.8,3.0
Marau,20,BR,1584134934,35,-28.45,-52.2,87.8,9.17
Cuilco,4,GT,1584135183,33,15.4,-91.97,80.15,5.82
Oxford,79,GB,1584135120,81,51.75,-1.26,46.4,8.05
Águas Vermelhas,92,BR,1584135183,93,-15.75,-41.46,69.89,5.66
Veřovice,0,CZ,1584135183,48,49.54,18.11,44.6,11.41
Fendou,0,CN,1584135184,84,46.65,124.87,12.65,6.29
Kushiro,0,JP,1584135184,59,42.98,144.37,27.95,6.55
Bulgan,0,MN,1584135184,73,48.81,103.53,15.71,4.7
Lukovetskiy,90,RU,1584135184,92,64.3,41.92,28.4,6.71
São João dos Patos,100,BR,1584135078,86,-6.5,-43.7,78.89,4.18
Barreirinha,94,BR,1584135185,62,-2.79,-57.07,89.51,1.1
Zeya,99,RU,1584135185,98,53.75,127.27,-3.73,4.21
Kamenka,100,RU,1584135185,57,51.32,42.77,42.01,7.99
Rome,90,US,1584134944,56,43.21,-75.46,46.4,20.8
São Félix do Xingu,99,BR,1584135185,89,-6.64,-51.99,81.23,2.06
Port Keats,57,AU,1584135048,84,-14.25,129.55,83.21,9.64
Gananoque,40,CA,1584135186,52,44.33,-76.17,45.0,26.4
Glace Bay,90,CA,1584135186,86,46.2,-59.96,30.99,16.11
Porosozero,100,RU,1584134984,85,62.72,32.73,20.75,13.11
Iralaya,20,HN,1584135186,66,15.0,-83.23,84.2,8.05
Amahai,100,ID,1584135187,76,-3.33,128.92,82.49,12.71
Dmytrivka,100,UA,1584135187,84,45.97,28.99,49.01,32.88
Dicabisagan,53,PH,1584135187,83,17.08,122.42,74.03,2.86
Wuwei,0,CN,1584135187,53,37.93,102.64,24.53,1.32
San Quintín,0,MX,1584135188,67,30.48,-115.95,63.05,10.69
Shenavan,40,AM,1584135188,48,40.05,43.93,59.0,3.56
Yaguajay,32,CU,1584135188,80,22.33,-79.24,76.55,14.16
Bonga,100,ET,1584135046,97,7.28,36.23,58.55,1.66
Virginia Beach,90,US,1584134380,56,36.85,-75.98,78.8,13.87
Socorro,1,US,1584135189,60,31.65,-106.3,73.0,10.29
Kuusamo,100,FI,1584135189,56,65.97,29.18,12.2,18.34
Province of Siena,75,IT,1584135189,93,43.22,11.4,55.0,3.36
Bikaner,0,IN,1584135189,54,28.02,73.3,61.61,9.22
Honiara,40,SB,1584135189,88,-9.43,159.95,80.6,2.24
Vanavara,100,RU,1584134988,95,60.34,102.28,15.71,6.91
Amboasary,75,MG,1584135190,94,-25.03,46.38,75.2,16.11
Kendari,100,ID,1584135190,94,-3.94,122.5,74.39,1.45
Thai Binh,40,VN,1584135190,100,20.45,106.33,73.4,3.36
Port Hedland,0,AU,1584135114,94,-20.32,118.57,77.0,6.93
Mount Gambier,90,AU,1584135191,62,-37.83,140.77,55.4,12.75
Māngrol,0,IN,1584135191,57,21.12,70.12,72.77,15.5
Abu Samrah,100,SY,1584135191,74,35.3,37.18,57.11,19.55
Udachny,0,RU,1584135191,75,66.42,112.4,-18.4,6.71
Husavik,90,IS,1584135192,92,66.04,-17.34,19.4,13.87
Langsa,0,ID,1584135192,91,4.47,97.97,75.47,1.41
Severodvinsk,90,RU,1584135192,92,64.56,39.83,28.4,6.71
Zhangjiakou,58,CN,1584135192,38,40.81,114.88,22.73,8.19
Dalby,0,AU,1584135192,82,-27.18,151.27,59.0,4.7
Roald,40,NO,1584135192,74,62.58,6.13,30.2,4.7
Mardin,90,TR,1584135193,76,37.31,40.74,55.4,18.34
Port Antonio,20,JM,1584135193,58,18.18,-76.46,86.0,4.7
Silifke,100,TR,1584135193,70,36.38,33.93,53.69,16.89
New Iberia,40,US,1584134994,61,30.0,-91.82,82.0,13.87
Tabou,100,CI,1584135038,94,4.42,-7.35,77.81,3.78
Olaine,90,LV,1584135194,94,56.79,23.94,33.8,16.11
Pucallpa,96,PE,1584135194,41,-8.38,-74.55,94.19,0.6
Nitra,0,SK,1584135195,48,48.31,18.08,45.0,2.24
Arrondissement de Vire,99,FR,1584135195,87,48.92,-0.83,46.0,4.7
Santa Cruz de la Sierra,75,BO,1584134935,44,-17.8,-63.17,95.0,8.05
Galle,0,LK,1584135196,81,6.04,80.22,79.07,12.3
Tallahassee,1,US,1584135067,44,30.44,-84.28,82.0,4.7
Mira,40,IT,1584135196,93,45.44,12.13,55.99,10.29
Yeniseysk,71,RU,1584135196,95,58.45,92.17,25.07,4.94
Ţahţā,75,EG,1584135197,37,26.77,31.5,68.0,32.21
Bendigo,0,AU,1584135034,66,-36.77,144.28,48.83,13.69
Mbanza-Ngungu,42,CD,1584135180,87,-5.25,14.87,71.69,1.34
Umluj,0,SA,1584135197,34,25.02,37.27,66.29,8.19
Sawtell,0,AU,1584135197,93,-30.38,153.1,62.6,3.36
Gornoye Loo,90,RU,1584135198,51,43.71,39.6,59.0,4.47
Menomonie,1,US,1584135002,37,44.88,-91.92,39.99,13.87
Soe,63,ID,1584135198,88,-9.86,124.28,73.31,4.7
Enshi,91,CN,1584135199,93,30.3,109.48,42.53,1.14
Kajiado,75,KE,1584135199,77,-1.85,36.78,69.8,6.93
St. Marys,1,US,1584135199,42,30.73,-81.55,87.8,10.29
Warkworth,0,NZ,1584135021,71,-36.4,174.67,70.0,1.99
Haines Junction,38,CA,1584135199,66,60.75,-137.51,9.95,3.53
Leshukonskoye,94,RU,1584135200,95,64.9,45.76,26.51,5.21
Sembakung,100,ID,1584135200,92,3.82,117.25,76.19,3.09
Ouadda,67,CF,1584135200,44,8.08,22.4,70.25,2.59
Kamaishi,24,JP,1584135200,59,39.27,141.88,32.63,2.68
Capaccio Paestum,75,IT,1584135200,81,40.42,15.08,55.0,17.22
Huilong,32,CN,1584135201,41,31.81,121.66,51.01,5.61
Rabo de Peixe,40,PT,1584135201,77,37.8,-25.58,59.0,4.7
Pāchora,17,IN,1584135201,24,20.67,75.35,63.59,4.65
Solnechnyy,100,RU,1584135201,98,50.72,136.63,0.41,2.64
Qasigiannguit,100,GL,1584135202,50,68.82,-51.19,6.8,11.41
Ouésso,19,CG,1584135202,70,1.61,16.05,74.39,1.7
Palekastro,0,GR,1584135202,47,35.2,26.25,63.0,15.01
Thinadhoo,100,MV,1584135133,68,0.53,72.93,83.21,9.69
Ranot,57,TH,1584135202,79,7.78,100.32,82.13,9.91
Amga,100,RU,1584135202,97,60.9,131.96,-7.69,1.01
Sørland,75,NO,1584135203,63,67.67,12.69,26.6,23.04
Hualmay,30,PE,1584135054,54,-11.1,-77.61,80.69,10.2
Grants Pass,20,US,1584135203,22,42.44,-123.33,61.0,3.96
Makakilo City,20,US,1584135103,65,21.35,-158.09,78.8,5.68
Lobva,100,RU,1584135203,90,59.19,60.52,37.13,12.95
