City,Cloudiness,Country,Date,Humidity,Lat,Lng,Max Temp,Wind Speed
Provideniya,100,RU,1584292935,98,64.38,-173.3,25.68,5.23
Buraidah,0,SA,1584293188,56,26.33,43.98,68.0,10.29
Cherskiy,98,RU,1584293189,97,68.75,161.3,-2.22,4.79
Dondo,0,MZ,1584293189,83,-19.61,34.74,80.6,112.74
Kabinda,29,CD,1584293189,87,-6.13,24.48,73.2,3.04
Cape Town,20,ZA,1584292986,68,-33.93,18.42,66.0,31.09
Bluff,76,NZ,1584292915,90,-46.6,168.33,54.0,14.0
Kiama,75,AU,1584293190,100,-34.68,150.87,59.0,10.29
Licata,2,IT,1584293190,77,37.11,13.95,60.8,6.93
Ushuaia,40,AR,1584292914,55,-54.8,-68.3,62.6,3.69
Saskylakh,100,RU,1584292916,96,71.92,114.08,20.1,5.41
Opuwo,70,NA,1584293191,45,-18.06,13.84,79.32,1.01
Kieta,100,PG,1584293191,80,-6.22,155.63,81.66,6.11
Punta Arenas,40,CL,1584292914,63,-53.15,-70.92,62.6,32.21
Butaritari,0,KI,1584292916,81,3.07,172.79,83.64,17.92
Busselton,42,AU,1584292918,71,-33.65,115.33,64.99,9.8
Hasaki,20,JP,1584292936,100,35.73,140.83,39.0,3.36
Gamba,99,GA,1584293193,86,-2.65,10.0,80.04,6.71
Barrow,1,US,1584292806,76,71.29,-156.79,-11.2,11.41
Billings Metropolitan Area,90,US,1584293016,85,45.78,-108.5,18.0,4.7
Lagoa,0,PT,1584292941,70,39.05,-27.98,58.62,3.98
Mataura,68,NZ,1584292916,90,-46.19,168.86,54.0,14.0
Wattegama,7,LK,1584292806,93,6.8,81.48,73.02,4.61
Cidreira,90,BR,1584292927,83,-30.18,-50.21,76.44,17.85
Kapaa,40,US,1584292915,78,22.08,-159.32,73.4,9.17
Husavik,40,IS,1584292938,74,66.04,-17.34,30.2,42.5
Bengkulu,93,ID,1584293195,88,-3.8,102.27,75.36,3.31
Mandalgovi,0,MN,1584292932,56,45.76,106.27,28.74,14.79
Avarua,77,CK,1584292677,100,-21.21,-159.78,75.2,1.12
Muscat,20,OM,1584293054,65,23.61,58.59,77.0,2.24
Salalah,20,OM,1584292936,65,17.02,54.09,77.0,8.05
Leningradskiy,98,RU,1584292925,70,69.38,178.42,14.7,12.35
Kalisz,49,PL,1584293197,47,51.76,18.09,39.99,1.99
Comodoro Rivadavia,0,AR,1584293160,36,-45.87,-67.5,77.0,12.75
Zhanakorgan,100,KZ,1584293198,28,43.91,67.25,58.8,6.44
Barra do Garças,1,BR,1584293198,56,-15.89,-52.26,89.58,2.19
Mackay,40,AU,1584292600,94,-21.15,149.2,73.0,4.7
La Ronge,20,CA,1584293199,71,55.1,-105.28,8.6,4.7
Maceió,90,BR,1584293199,88,-9.67,-35.74,80.6,4.7
Bredasdorp,100,ZA,1584292918,59,-34.53,20.04,66.2,12.75
Gigmoto,4,PH,1584292940,76,13.78,124.39,80.22,10.4
Narsaq,100,GL,1584293200,42,60.92,-46.05,28.4,9.17
Ossora,100,RU,1584292926,77,59.24,163.07,10.56,8.46
Farafangana,6,MG,1584292941,80,-22.82,47.83,78.96,13.51
Hobart,90,AU,1584292840,62,-42.88,147.33,55.4,2.24
Bambous Virieux,75,MU,1584292920,83,-20.34,57.76,78.8,1.12
Blagoyevo,55,RU,1584293201,93,63.37,47.92,9.12,6.02
Ust'-Karsk,82,RU,1584293201,93,52.7,118.81,14.88,2.33
Grand-Lahou,92,CI,1584293201,80,5.14,-5.02,83.46,13.47
Ahipara,99,NZ,1584292860,76,-35.17,173.17,63.48,7.58
Arraial do Cabo,0,BR,1584292915,66,-22.97,-42.03,89.6,20.8
Saint-Philippe,100,RE,1584292920,78,-21.36,55.77,78.8,12.75
Auch,33,FR,1584293202,67,43.65,0.58,59.0,25.28
Bekovo,100,RU,1584293203,91,52.47,43.71,25.86,18.79
Hithadhoo,34,MV,1584292920,57,-0.6,73.08,84.18,3.85
Humberto de Campos,100,BR,1584293203,86,-2.6,-43.46,81.48,7.52
Rikitea,76,PF,1584292915,81,-23.12,-134.97,77.88,12.77
Syracuse,75,IT,1584292980,77,37.09,15.28,60.8,9.17
Touros,40,BR,1584292926,79,-5.2,-35.46,84.2,9.17
Novopokrovka,75,UA,1584293204,79,49.84,36.55,26.6,8.95
Broome,1,US,1584293204,29,42.25,-75.83,44.01,13.87
Cabinda,75,AO,1584293204,83,-5.55,12.2,84.2,5.82
Ixtapa,40,MX,1584292636,58,20.7,-105.2,82.4,5.84
Vila Franca do Campo,20,PT,1584292914,67,37.72,-25.43,62.6,10.29
Castro,3,BR,1584292918,42,-24.79,-50.01,84.9,4.85
Kiryat Gat,66,IL,1584292684,77,31.61,34.76,64.4,5.82
Nuevo Progreso,77,MX,1584292914,68,23.17,-97.95,82.0,3.0
Albany,1,US,1584292823,30,42.6,-73.97,44.01,6.82
Floriano,95,BR,1584293205,75,-6.77,-43.02,81.48,5.55
Shivrājpur,73,IN,1584293205,15,22.42,73.65,74.46,10.85
Bonavista,66,CA,1584293206,89,48.65,-53.11,28.99,11.99
Lucapa,87,AO,1584293182,92,-8.42,20.74,71.04,3.51
Port Hardy,5,CA,1584292945,50,50.7,-127.42,33.8,17.22
Kibre Mengist,59,ET,1584293206,90,5.88,38.98,62.94,1.01
Venado Tuerto,91,AR,1584293206,64,-33.75,-61.97,68.16,6.26
Vaini,75,TO,1584292917,94,-21.2,-175.2,78.8,12.75
Singaparna,98,ID,1584292789,95,-7.35,108.11,71.04,2.51
São Filipe,0,CV,1584292928,69,14.9,-24.5,72.84,20.51
Tilichiki,98,RU,1584292918,94,60.47,166.1,8.76,7.27
College,90,US,1584292939,100,64.86,-147.8,24.8,5.82
Quryq,16,KZ,1584293207,59,43.2,51.65,52.32,13.33
Thompson,20,CA,1584292926,50,55.74,-97.86,6.8,10.29
Phan Thiet,20,VN,1584293208,83,10.93,108.1,71.94,6.13
Itarema,57,BR,1584293208,81,-2.92,-39.92,83.64,6.38
Iralaya,32,HN,1584292686,76,15.0,-83.23,80.4,12.8
Prince Rupert,1,CA,1584293208,55,54.32,-130.32,35.6,4.54
Dunedin,94,NZ,1584292933,88,-45.87,170.5,55.99,15.68
Nikolskoye,30,RU,1584292915,51,59.7,30.79,35.6,8.95
Itaueira,100,BR,1584293209,87,-7.6,-43.03,79.86,5.68
Flagstaff,40,US,1584293134,75,35.2,-111.65,55.99,6.93
Kisangani,99,CD,1584293209,88,0.52,25.2,74.1,0.87
Mossamedes,40,AO,1584292919,69,-15.2,12.15,82.4,11.41
Chokurdakh,0,RU,1584292919,71,70.63,147.92,-22.2,4.07
Beringovskiy,0,RU,1584293210,93,63.05,179.32,20.46,7.58
Hebron,66,PS,1584293210,77,31.53,35.1,64.4,5.82
Berlevåg,20,NO,1584293085,73,70.86,29.09,28.4,18.34
Kavieng,100,PG,1584292921,70,-2.57,150.8,84.54,7.74
Korem,100,ET,1584293210,90,12.51,39.52,59.16,2.35
Olafsvik,100,IS,1584292934,67,64.89,-23.71,36.12,26.6
Dikson,100,RU,1584292915,98,73.51,80.55,-6.72,3.13
Kushiro,23,JP,1584292736,64,42.98,144.37,27.66,2.71
Kavaratti,1,IN,1584293211,69,10.57,72.64,83.1,7.18
Ol'ga,0,RU,1584293212,49,43.74,135.29,28.02,24.34
Atuona,17,PF,1584292916,67,-9.8,-139.03,81.84,9.04
Hilo,90,US,1584292841,78,19.73,-155.09,71.6,3.36
Dalvik,40,IS,1584293212,74,65.97,-18.53,30.2,42.5
Khatanga,100,RU,1584292918,90,71.97,102.5,-16.26,8.81
Amazar,35,RU,1584292916,93,53.86,120.88,7.68,1.61
Katsuura,99,JP,1584292916,81,35.13,140.3,44.01,8.05
Anadyr,40,RU,1584292944,79,64.75,177.48,26.6,15.66
Krasnyy Chikoy,51,RU,1584293213,95,50.36,108.75,17.76,3.04
San Andrés,20,CO,1584293213,66,12.58,-81.7,86.0,14.99
Mayo,90,US,1584292943,65,38.89,-76.51,50.0,6.93
George Town,40,MY,1584292917,88,5.41,100.34,82.4,2.24
Ranau,20,MY,1584293214,88,5.95,116.66,79.0,2.24
Pevek,96,RU,1584292936,94,69.7,170.31,8.76,13.13
Yellowknife,75,CA,1584292922,79,62.46,-114.35,25.0,14.99
Le Port,100,RE,1584293215,78,-20.94,55.29,78.8,12.75
Inhambane,20,MZ,1584292916,69,-23.86,35.38,82.4,5.82
Dothan,1,US,1584293215,51,31.22,-85.39,81.0,4.7
Mar del Plata,75,AR,1584292917,63,-38.0,-57.56,66.2,11.41
Houma,1,US,1584293215,61,29.6,-90.72,82.0,6.93
Ystad,90,SE,1584293134,65,55.43,13.82,46.99,17.22
Koutsouras,0,GR,1584293216,81,35.03,25.95,62.01,11.01
Mount Isa,0,AU,1584292929,31,-20.73,139.5,77.0,8.05
Longyearbyen,40,SJ,1584292916,76,78.22,15.64,-9.4,5.82
St. George's,75,GD,1584293216,88,12.06,-61.75,78.8,13.71
Richards Bay,18,ZA,1584292944,82,-28.78,32.04,79.32,16.93
New Norfolk,90,AU,1584292922,62,-42.78,147.06,55.4,2.24
East London,40,ZA,1584292915,82,-33.02,27.91,68.0,9.17
Hermanus,26,ZA,1584292917,78,-34.42,19.23,64.99,5.99
Chui,100,UY,1584292915,56,-33.7,-53.46,73.2,10.65
Port Blair,16,IN,1584292927,73,11.67,92.75,82.74,11.61
Taoudenni,0,ML,1584292863,4,22.68,-3.98,89.94,10.02
Tuktoyaktuk,90,CA,1584292926,77,69.45,-133.04,-2.2,24.16
Taksimo,100,RU,1584293218,96,56.34,114.88,12.36,0.2
Cockburn Town,40,TC,1584292826,61,21.46,-71.14,78.8,14.99
Torbay,90,CA,1584292921,74,47.67,-52.73,32.0,26.4
Tiksi,99,RU,1584292919,87,71.69,128.87,3.0,18.37
Puerto Ayora,20,EC,1584292918,74,-0.74,-90.35,84.2,9.17
Broken Hill,0,AU,1584293218,44,-31.95,141.43,60.8,8.05
Nome,100,US,1584292900,97,64.5,-165.41,24.96,5.75
Finschhafen,100,PG,1584292983,71,-6.6,147.87,82.2,1.99
Hong Kong,20,HK,1584292698,72,22.29,114.16,69.01,10.29
Dzhebariki-Khaya,5,RU,1584293219,82,62.22,135.8,-16.26,2.91
Kānkānhalli,2,IN,1584293219,61,12.55,77.42,77.0,9.17
Mehamn,82,NO,1584293219,46,71.04,27.85,28.4,18.34
Muzhi,74,RU,1584293220,99,65.37,64.67,-3.12,3.53
Littleton,75,US,1584293220,69,39.61,-105.02,48.99,4.7
Soyo,75,AO,1584293153,83,-6.13,12.37,84.2,5.82
Zaranj,100,AF,1584293220,45,30.97,61.88,62.6,4.7
Ribeira Grande,20,PT,1584292918,72,38.52,-28.7,64.4,9.17
Miandrivazo,90,MG,1584293221,80,-19.52,45.47,79.14,1.92
Kyshtovka,100,RU,1584293221,91,56.55,76.63,34.32,18.9
São Miguel do Araguaia,83,BR,1584293221,81,-13.28,-50.16,82.38,3.42
Tecpan,20,GT,1584293221,44,14.76,-90.99,77.0,13.87
Kutum,30,SD,1584292931,20,14.2,24.67,68.52,4.12
Rongcheng,89,CN,1584293221,74,30.63,117.85,54.0,2.26
Verkhnyaya Inta,0,RU,1584293222,84,65.98,60.31,-3.66,5.73
Dukat,100,RU,1584292926,100,62.55,155.55,-6.9,4.12
Chon Daen,100,TH,1584293222,51,16.19,100.86,89.01,1.25
Kachug,53,RU,1584293222,91,53.96,105.88,22.98,6.08
Boa Vista,75,BR,1584293223,46,2.82,-60.67,91.4,10.29
Flinders,75,AU,1584292937,100,-34.58,150.86,62.01,10.29
Tasiilaq,100,GL,1584292919,39,65.61,-37.64,8.6,21.92
Nelson Bay,75,AU,1584293223,93,-32.72,152.15,64.0,6.93
Qaanaaq,100,GL,1584292917,64,77.48,-69.36,-12.3,2.39
Upernavik,0,GL,1584292684,74,72.79,-56.15,-18.6,3.8
Esperance,27,AU,1584292940,82,-33.87,121.9,68.0,6.93
Shreveport,90,US,1584293224,81,32.53,-93.75,55.0,10.29
Eilat,25,IL,1584293224,68,29.56,34.95,71.6,9.17
Airai,82,TL,1584292918,79,-8.93,125.41,66.0,3.04
Severo-Yeniseyskiy,92,RU,1584293224,91,60.37,93.04,28.56,12.12
Ancud,20,CL,1584292917,59,-41.87,-73.82,64.4,13.87
Nayoro,28,JP,1584292944,92,44.35,142.46,13.26,0.89
Muros,75,ES,1584293225,86,42.78,-9.06,52.0,6.93
Port Shepstone,88,ZA,1584293225,93,-30.74,30.45,70.68,10.92
Egvekinot,99,RU,1584293225,99,66.32,-179.17,8.22,6.24
Port Macquarie,47,AU,1584293225,100,-31.43,152.92,61.0,4.7
Port Alfred,90,ZA,1584292917,98,-33.59,26.89,63.0,16.08
Yangi Marg`ilon,52,UZ,1584293226,30,40.43,71.72,57.2,6.93
Jalu,0,LY,1584293006,17,29.03,21.55,73.2,8.23
Saint George,90,US,1584292734,62,37.1,-113.58,57.0,17.22
Srednekolymsk,57,RU,1584292940,97,67.45,153.68,-22.02,3.91
Norman Wells,75,CA,1584292926,78,65.28,-126.83,15.8,16.11
Alofi,100,NU,1584292923,94,-19.06,-169.92,75.2,2.24
Saint Anthony,40,US,1584292926,59,45.02,-93.22,37.99,11.41
Lebu,0,CL,1584292919,40,-37.62,-73.65,67.98,10.67
Carnarvon,0,AU,1584292923,83,-24.87,113.63,78.8,10.29
Posevnaya,100,RU,1584293227,89,54.3,83.33,33.78,16.22
Kirovskiy,65,RU,1584293228,94,45.09,133.51,12.0,3.27
Pandan,21,PH,1584293228,78,14.05,124.17,78.78,8.57
Kīhei,20,US,1584293228,88,20.79,-156.47,69.8,10.96
Kaitangata,90,NZ,1584292921,88,-46.28,169.85,53.01,22.93
Nova Venécia,88,BR,1584293228,81,-18.71,-40.4,80.22,7.34
Puerto Madero,40,MX,1584293228,62,14.72,-92.42,87.8,7.7
Atar,0,MR,1584292782,9,20.52,-13.05,86.88,12.01
Bilma,0,NE,1584293229,11,18.69,12.92,68.88,1.41
Jardim,16,BR,1584293229,34,-21.48,-56.14,96.06,7.58
Gorontalo,30,ID,1584292940,89,0.54,123.06,70.86,4.68
Vila Velha,20,BR,1584292929,58,-20.33,-40.29,86.0,10.29
Bosaso,0,SO,1584293086,83,11.28,49.18,77.52,12.73
Hamilton,75,US,1584292882,65,39.18,-84.53,44.01,5.82
Smidovich,38,RU,1584293230,83,48.6,133.82,8.22,8.01
Umm Kaddadah,53,SD,1584292830,14,13.6,26.69,78.78,11.54
Bay City,1,US,1584293049,59,43.59,-83.89,39.2,13.87
Itoman,40,JP,1584293135,51,26.12,127.67,62.6,14.99
Nyuksenitsa,16,RU,1584293231,88,60.41,44.24,14.16,0.94
Murgab,75,TM,1584293231,35,37.5,61.97,69.8,13.87
Praia,20,CV,1584292921,57,14.92,-23.51,78.8,13.87
Ambon City,40,ID,1584293232,94,-3.7,128.18,77.0,4.7
Dingle,18,PH,1584293232,86,11.0,122.67,71.4,9.31
Birao,39,CF,1584292929,14,10.28,22.79,86.16,7.25
Redmond,40,US,1584293116,40,47.67,-122.12,39.0,11.41
Nara,75,JP,1584293233,87,34.69,135.8,42.8,12.75
San Patricio,20,MX,1584292938,79,19.22,-104.7,86.0,6.93
Palauig,68,PH,1584293233,81,15.44,119.9,72.84,3.67
Poso,90,ID,1584293234,79,-1.4,120.75,68.16,2.01
Saint-Pierre,100,RE,1584292936,78,-21.34,55.48,78.8,12.75
Port Lincoln,25,AU,1584293234,76,-34.73,135.87,63.48,12.68
Kahului,20,US,1584292925,88,20.89,-156.47,69.8,10.96
Lata,75,PT,1584293235,81,40.16,-8.33,52.0,14.99
Aykhal,100,RU,1584293235,73,66.0,111.5,23.0,8.95
Jenjarom,20,MY,1584293236,78,2.88,101.5,82.4,10.29
Riviere-au-Renard,40,CA,1584293236,46,49.0,-64.4,30.2,13.87
Weihe,100,CN,1584293236,92,33.0,105.32,48.99,3.18
Conde,75,BR,1584293236,66,-7.26,-34.91,86.0,6.93
Port Moresby,51,PG,1584293119,77,-9.44,147.18,79.5,6.31
Tank,51,PK,1584293236,47,32.22,70.38,67.08,6.89
Vulcan,100,RO,1584293237,93,45.38,23.27,26.4,3.2
Umluj,0,SA,1584293237,55,25.02,37.27,70.14,7.9
Atambua,100,ID,1584293161,81,-9.11,124.89,73.2,3.74
Garissa,100,KE,1584292939,48,-0.45,39.64,90.12,5.86
Balkanabat,6,TM,1584293237,69,39.51,54.37,54.3,3.65
Vao,41,NC,1584293237,72,-22.67,167.48,84.0,45.79
Port-Gentil,40,GA,1584292932,83,-0.72,8.78,84.2,8.05
St. Pete Beach,40,US,1584293238,69,27.73,-82.74,87.01,6.93
Berdigestyakh,76,RU,1584292917,98,62.1,126.7,-2.94,5.75
Shingū,42,JP,1584292918,69,33.73,135.98,46.2,22.12
Talcahuano,0,CL,1584293238,49,-36.72,-73.12,68.0,9.17
Cabedelo,75,BR,1584293238,66,-6.98,-34.83,86.0,6.93
Curup,45,ID,1584293239,96,-3.47,102.53,68.16,4.88
Revda,20,RU,1584293220,92,56.8,59.93,26.6,8.95
Maïné Soroa,67,NE,1584293239,9,13.21,12.02,78.6,10.87
Jamestown,1,US,1584292918,47,42.1,-79.24,42.01,14.99
Souillac,75,MU,1584292915,83,-20.52,57.52,78.8,1.12
Mahébourg,75,MU,1584292918,83,-20.41,57.7,78.8,1.12
Isangel,100,VU,1584292918,83,-19.55,169.27,82.38,29.3
Vanavara,100,RU,1584292943,89,60.34,102.28,30.72,14.32
Lanzhou,100,CN,1584293240,80,36.06,103.79,37.99,2.24
Fonte Boa,95,BR,1584292923,75,-2.5,-66.27,81.66,2.08
Mayumba,61,GA,1584293240,83,-3.43,10.66,82.2,9.28
Westport,1,US,1584293240,34,41.14,-73.36,51.01,6.93
Gloucester,40,GB,1584293241,87,51.87,-2.24,48.99,5.82
Newala,100,TZ,1584293241,97,-10.94,39.28,74.64,1.59
Saint-Augustin,100,CA,1584293241,63,51.23,-58.65,26.22,14.03
Sinjai,95,ID,1584293241,78,-5.12,120.25,82.38,5.61
Jumla,11,NP,1584293241,66,29.27,82.18,27.48,5.28
Yakeshi,21,CN,1584293241,76,49.28,120.73,-4.2,3.04
Labuhan,52,ID,1584292934,91,-6.88,112.21,76.08,2.73
Mogok,95,MM,1584293242,31,22.92,96.5,74.1,5.26
Pangnirtung,75,CA,1584293242,67,66.15,-65.71,-22.0,2.77
Plettenberg Bay,100,ZA,1584292943,89,-34.05,23.37,61.68,1.72
Ponta do Sol,40,PT,1584292921,72,32.67,-17.1,63.0,16.11
Mount Gambier,0,AU,1584292934,93,-37.83,140.77,46.4,4.7
Namatanai,100,PG,1584293243,78,-3.67,152.43,82.2,11.18
Anyang,100,CN,1584293243,30,36.1,114.33,50.88,3.83
Nemuro,0,JP,1584292927,62,43.32,145.57,28.2,10.07
Bol,65,TD,1584293243,41,13.46,14.71,75.0,9.73
Saint-Paul,100,RE,1584293243,78,-21.01,55.27,78.8,12.75
Severo-Kuril'sk,100,RU,1584292917,98,50.68,156.12,30.72,12.82
Padang,72,ID,1584292915,92,-0.95,100.35,69.6,5.35
Tuatapere,95,NZ,1584292932,90,-46.13,167.68,54.0,14.0
Novouzensk,52,RU,1584293244,50,50.46,48.14,31.98,18.23
Callaguip,0,PH,1584293244,74,18.07,120.49,73.2,9.98
Port Elizabeth,75,ZA,1584292915,93,-33.92,25.57,64.4,4.7
Ilulissat,20,GL,1584292924,43,69.22,-51.1,-5.8,6.93
Salinópolis,100,BR,1584293244,87,-0.61,-47.36,78.24,5.82
Cabo San Lucas,75,MX,1584292927,68,22.89,-109.91,75.0,4.7
Esso,100,RU,1584293245,96,55.93,158.7,7.14,6.96
Presidencia Roque Sáenz Peña,93,AR,1584292864,56,-26.79,-60.44,87.24,6.02
Noyabrsk,76,RU,1584293245,95,63.2,75.45,8.4,9.33
Tocopilla,0,CL,1584293245,36,-22.09,-70.2,76.08,10.04
Coquimbo,90,CL,1584292784,77,-29.95,-71.34,64.4,11.41
Baruun-Urt,33,MN,1584293246,85,46.68,113.28,21.9,12.95
Mons,98,BE,1584293047,66,50.45,3.95,55.99,8.05
Basco,68,PH,1584293246,71,20.45,121.97,69.78,19.86
Puro,0,PH,1584293247,76,12.48,123.38,75.9,5.19
Obo,65,CF,1584293247,31,5.4,26.49,79.14,2.48
Okha,50,RU,1584293247,92,53.57,142.95,-3.12,11.7
Aksu,42,CN,1584292929,23,41.12,80.26,45.84,6.51
Banyo,61,CM,1584293247,19,6.75,11.82,80.94,2.8
San Angelo,90,US,1584293247,100,31.46,-100.44,53.6,12.75
Bethel,1,US,1584292832,31,41.37,-73.41,50.0,11.41
Sturgeon Falls,20,CA,1584293248,34,46.36,-79.93,26.01,6.93
Buin,0,CL,1584293248,30,-33.73,-70.75,84.2,4.7
Araouane,4,ML,1584293248,7,18.9,-3.53,88.32,4.05
Price,75,US,1584293249,75,39.6,-110.81,50.0,5.82
Nishihara,40,JP,1584293125,51,26.18,127.76,62.6,14.99
Tiarei,20,PF,1584292937,78,-17.53,-149.33,80.6,3.36
Constitución,0,CL,1584293249,47,-35.33,-72.42,66.54,11.92
Griffith,40,US,1584293067,60,41.53,-87.42,39.99,11.41
Huilong,79,CN,1584293249,40,31.81,121.66,57.0,11.79
Bahía Blanca,0,AR,1584293250,20,-38.72,-62.27,76.8,7.36
Darhan,33,MN,1584293250,77,49.49,105.92,24.78,7.52
Būkān,63,IR,1584293250,74,36.52,46.21,49.08,5.66
Ribeirópolis,40,BR,1584293250,52,-10.54,-37.42,89.6,14.99
Rehti,39,IN,1584293250,55,22.73,77.43,64.4,3.36
Avilés,75,ES,1584293250,87,43.55,-5.92,46.99,14.99
Bandarbeyla,0,SO,1584293251,77,9.49,50.81,79.68,12.17
Villa Carlos Paz,75,AR,1584293251,100,-31.42,-64.5,61.0,4.7
Tauranga,98,NZ,1584293251,92,-37.69,176.17,60.01,1.01
Sharjah city,0,AE,1584293167,40,25.36,55.4,80.01,6.93
Kaputa,99,ZM,1584293251,93,-8.47,29.66,69.06,2.08
Irpa Irpa,75,BO,1584293251,31,-17.72,-66.27,78.8,5.82
Rāmhormoz,61,IR,1584293252,46,31.28,49.6,69.8,11.41
Sarangani,92,PH,1584293252,78,5.4,125.46,81.84,17.87
Iqaluit,75,CA,1584292920,68,63.75,-68.51,-13.0,2.24
Tuy Hoa,52,VN,1584293252,85,13.08,109.3,77.7,8.25
Coyhaique,40,CL,1584292925,52,-45.58,-72.07,66.2,6.93
Nyurba,100,RU,1584293252,95,63.28,118.33,29.46,6.6
Faanui,4,PF,1584292930,77,-16.48,-151.75,82.56,13.94
Hobyo,59,SO,1584292925,76,5.35,48.53,81.3,13.11
Lavrentiya,100,RU,1584292922,98,65.58,-171.0,28.56,7.92
Bilibino,60,RU,1584292919,97,68.05,166.44,-8.52,3.42
Pelotas,90,BR,1584292989,69,-31.77,-52.34,78.8,9.17
Tsumeb,61,NA,1584293253,56,-19.23,17.72,76.26,5.66
Ambilobe,100,MG,1584293254,90,-13.2,49.05,79.5,9.73
Grindavik,75,IS,1584292942,74,63.84,-22.43,37.4,24.16
Havelock,90,US,1584293254,87,34.88,-76.9,52.0,16.11
Santa Luzia,20,BR,1584293254,48,-19.77,-43.85,86.0,6.93
Alghero,20,IT,1584293254,77,40.56,8.32,60.8,6.93
Aloleng,10,PH,1584293254,84,16.13,119.78,72.84,2.42
Joshīmath,33,IN,1584293255,48,30.57,79.57,29.46,9.8
Ponta Delgada,20,PT,1584293255,67,37.73,-25.67,62.6,10.29
Isla Mujeres,75,MX,1584293255,69,21.23,-86.73,82.4,11.41
Asău,0,RO,1584292917,31,46.43,26.4,36.0,6.93
Douglas,90,US,1584292646,74,41.3,-96.17,34.0,8.05
Nguruka,36,TZ,1584293256,87,-5.11,31.04,70.68,1.48
Hervey Bay,90,AU,1584292932,64,-25.3,152.85,72.0,9.17
Caramutan,62,PH,1584293256,83,15.92,120.62,75.18,4.36
Maţāy,0,EG,1584293256,45,28.42,30.78,71.58,7.56
Dudinka,15,RU,1584292940,83,69.41,86.18,-14.8,11.18
Cooma,90,AU,1584293256,100,-36.23,149.13,42.8,5.82
Arrifes,20,PT,1584293257,67,37.77,-25.7,62.6,10.29
Kunyang,12,CN,1584293257,79,27.67,120.57,50.34,2.48
Erenhot,0,CN,1584293257,39,43.65,111.98,35.94,16.73
Atlantic City,90,US,1584293246,43,39.36,-74.42,53.01,9.17
Ternate,12,ID,1584293257,86,0.8,127.4,71.58,3.04
Krivosheino,100,RU,1584293257,97,57.34,83.93,32.7,11.23
Ambovombe,0,MG,1584293257,88,-25.17,46.08,72.48,6.96
Teguise,20,ES,1584293258,56,29.06,-13.56,68.0,17.22
Fare,6,PF,1584292932,77,-16.7,-151.02,82.38,13.94
Ocampo,20,MX,1584293259,35,21.65,-101.5,71.22,3.27
Vaitape,4,PF,1584293259,77,-16.52,-151.75,82.56,13.94
Tūkrah,0,LY,1584293259,69,32.53,20.58,59.52,2.59
Korla,91,CN,1584292766,69,41.76,86.15,42.01,3.0
Beloha,18,MG,1584293087,87,-25.17,45.05,72.48,12.62
Bisira,75,PA,1584293260,55,8.52,-81.71,78.42,14.47
Hualmay,100,PE,1584292927,57,-11.1,-77.61,80.94,11.34
Caravelas,100,BR,1584292943,75,-17.71,-39.25,80.94,7.54
Nizhniy Chir,62,RU,1584293261,49,48.36,43.09,32.34,8.97
Ugoofaaru,3,MV,1584293261,75,5.67,73.0,83.64,9.66
Aswān,0,EG,1584292921,31,24.09,32.91,78.8,6.93
Ulladulla,40,AU,1584293262,100,-35.35,150.47,60.01,13.87
Ürümqi,0,CN,1584292809,52,43.8,87.6,42.8,6.71
Shaoguan,89,CN,1584293266,63,24.8,113.58,62.58,1.21
Klaksvík,95,FO,1584292930,64,62.23,-6.59,33.8,9.17
Emerald,0,AU,1584293187,64,-23.53,148.17,70.0,10.29
Colina,16,BR,1584293268,60,-20.71,-48.54,84.9,3.98
Lompoc,90,US,1584292840,58,34.64,-120.46,57.99,12.75
Upata,20,VE,1584293272,28,8.01,-62.4,96.06,5.86
West Bay,40,KY,1584292853,70,19.37,-81.42,84.2,16.11
San José del Palmar,75,CO,1584293273,83,4.97,-76.23,77.0,3.36
Kotma,29,IN,1584293273,54,23.2,81.97,67.62,5.17
Oktyabr'skoye,90,RU,1584293273,100,43.06,44.74,41.0,2.24
Burnie,26,AU,1584293274,91,-41.07,145.92,55.0,4.0
Kenai,1,US,1584293129,76,60.55,-151.26,7.0,4.72
Kamiiso,100,JP,1584293274,94,41.82,140.65,25.5,2.57
Nizwá,17,OM,1584292942,31,22.93,57.53,64.92,8.68
Ingham,1,US,1584293275,38,42.6,-84.38,43.0,10.29
Samarai,98,PG,1584293029,84,-10.62,150.67,75.18,4.05
Manacapuru,75,BR,1584293138,70,-3.3,-60.62,84.2,4.7
San Policarpo,21,PH,1584293276,77,12.18,125.51,76.98,8.7
Guerrero Negro,0,MX,1584292926,61,27.98,-114.06,64.2,14.07
Beira,0,MZ,1584293276,83,-19.84,34.84,80.6,112.74
Saint Paul Harbor,1,US,1584292923,78,57.79,-152.41,17.6,6.93
Nago,40,JP,1584293276,55,26.59,127.98,62.6,8.05
Laguna,90,US,1584292927,87,38.42,-121.42,52.0,21.92
Sultepec,20,MX,1584293277,42,18.87,-99.95,62.6,8.05
Leh,0,IN,1584292934,50,34.17,77.58,13.44,2.1
Yambio,37,SS,1584293277,67,4.57,28.4,76.62,4.56
Kutulik,100,RU,1584293277,95,53.35,102.78,29.28,6.71
Nantucket,40,US,1584292752,48,41.28,-70.1,44.6,13.87
Lüderitz,0,NA,1584292917,53,-26.65,15.16,75.2,23.04
Contamana,100,PE,1584293278,32,-7.33,-75.02,102.9,1.63
Phuthaditjhaba,1,ZA,1584293278,78,-28.52,28.82,59.52,7.61
Ejido,100,VE,1584293278,91,8.55,-71.24,54.12,2.33
Tumpat,20,MY,1584293278,83,6.2,102.17,82.4,12.75
Sinnamary,83,GF,1584292920,72,5.38,-52.95,80.58,11.39
Quthing,0,LS,1584293279,40,-30.4,27.7,62.58,4.09
Puerto Limón,75,CR,1584293279,78,10.0,-83.03,84.99,14.99
Doba,26,TD,1584293279,9,8.65,16.85,86.52,4.34
Herat Province,75,AF,1584293280,22,34.5,62.0,68.0,18.34
Sitka,20,US,1584292937,60,57.05,-135.33,32.0,3.15
Praia,20,CV,1584293280,57,14.92,-23.51,78.8,23.04
Naze,0,JP,1584292926,48,28.37,129.48,60.8,21.92
Zyryanka,0,RU,1584293216,79,65.75,150.85,-18.24,5.19
Narasannapeta,69,IN,1584293282,88,18.42,84.05,75.18,2.24
Kaya,100,BF,1584293282,11,13.09,-1.08,96.42,8.81
Pauini,100,BR,1584292915,70,-7.71,-66.98,86.88,4.72
Paamiut,9,GL,1584292934,62,61.99,-49.67,8.22,15.17
Iskateley,100,RU,1584292687,87,67.68,53.15,13.8,18.45
Ust-Tsilma,75,RU,1584292942,89,65.44,52.15,15.24,7.72
Codrington,0,AU,1584292884,78,-38.27,141.97,58.62,14.36
Qobustan,75,AZ,1584293284,87,40.08,49.41,46.4,11.41
Gornji Milanovac,40,RS,1584293285,93,44.03,20.45,41.0,9.17
São João do Piauí,100,BR,1584293285,61,-8.36,-42.25,85.8,6.93
Aksha,100,RU,1584293285,83,50.28,113.29,26.58,8.97
Karaton,40,ID,1584293286,83,-6.34,106.1,78.8,3.36
Chenzhou,83,CN,1584293286,75,25.8,113.03,60.6,1.23
Alyangula,0,AU,1584292933,94,-13.85,136.42,71.6,3.36
Talnakh,22,RU,1584292937,83,69.49,88.4,-14.8,11.18
Fortuna,1,US,1584292929,81,40.6,-124.16,46.99,14.99
Buala,100,SB,1584292937,85,-8.14,159.59,80.04,8.68
Duku,34,NG,1584293287,7,11.24,4.91,93.36,6.42
Baturaja,100,ID,1584293287,97,-4.13,104.17,74.28,0.96
Sorong,96,ID,1584292789,98,-0.88,131.25,71.22,1.66
San Cristobal,75,VE,1584292934,61,7.77,-72.22,80.6,9.17
Adrar,0,MR,1584292935,8,20.5,-10.07,85.8,9.53
Puerto del Rosario,40,ES,1584293288,43,28.5,-13.86,71.6,18.34
Verkhnevilyuysk,100,RU,1584293288,96,63.45,120.32,29.82,5.88
Gushikawa,40,JP,1584293289,55,26.35,127.87,62.6,8.05
Yuancheng,100,CN,1584293289,75,36.65,107.79,40.62,7.25
Aklavik,75,CA,1584292890,65,68.22,-135.01,8.6,13.87
Popondetta,93,PG,1584293289,94,-8.75,148.25,71.58,2.66
Springbok,0,ZA,1584293195,44,-29.66,17.89,68.16,10.85
Sühbaatar,55,MN,1584293290,71,50.23,106.21,25.14,3.62
Hailar,41,CN,1584292923,73,49.2,119.7,2.64,8.57
Rurrenabaque,75,BO,1584293290,70,-14.44,-67.53,91.4,2.77
Artyom,75,AZ,1584293291,87,40.47,50.33,46.4,11.41
Ngunguru,100,NZ,1584292919,91,-35.62,174.5,59.0,7.0
Matamoros,75,MX,1584292936,32,25.53,-103.25,82.4,5.82
Portland,20,US,1584293282,51,45.52,-122.68,41.0,24.16
Witney,75,GB,1584293291,81,51.78,-1.49,48.2,5.82
Neuquén,0,AR,1584293292,14,-38.95,-68.06,80.6,10.29
Camaçari,75,BR,1584293292,79,-12.7,-38.32,87.8,10.29
Rabo de Peixe,20,PT,1584293292,67,37.8,-25.58,62.6,10.29
Kokstad,54,ZA,1584293292,98,-30.55,29.42,60.06,2.93
Kjøpsvik,75,NO,1584293292,68,68.1,16.37,32.0,8.05
Petropavlovsk-Kamchatskiy,90,RU,1584292933,100,53.05,158.65,26.6,11.18
Vestmannaeyjar,75,IS,1584292945,74,63.44,-20.27,37.4,19.46
Seoni,54,IN,1584293293,21,22.08,79.53,70.32,7.96
Morehead,90,US,1584293293,75,37.27,-87.18,43.0,10.29
Aubenas,20,FR,1584293293,58,44.62,4.39,59.0,18.34
Bhadohi,40,IN,1584293293,94,25.42,82.57,68.0,3.36
Koulikoro,77,ML,1584293293,8,14.0,-7.75,95.52,2.64
Half Moon Bay,40,US,1584293294,76,37.46,-122.43,52.0,10.29
Atasū,100,KZ,1584293294,72,48.68,71.64,38.1,9.4
Benjamín Hill,83,MX,1584293294,50,30.17,-111.1,66.99,1.01
Clyde River,40,CA,1584293294,75,70.47,-68.59,-18.4,12.75
Singaraja,78,ID,1584293294,72,-8.11,115.09,83.64,4.99
Bambanglipuro,100,ID,1584292929,85,-7.95,110.28,75.9,3.94
Benguela,75,AO,1584293295,79,-12.58,13.41,84.2,6.93
Madera,90,US,1584293068,71,37.17,-119.83,57.99,14.99
Hinton,0,CA,1584293295,71,53.4,-117.59,15.24,4.72
San Jerónimo,100,PE,1584293371,51,-11.95,-75.28,57.72,6.6
Río Gallegos,75,AR,1584293371,42,-51.62,-69.22,68.0,12.75
Brownfield,90,US,1584293371,88,33.18,-102.27,46.4,16.11
Te Anau,83,NZ,1584293371,79,-45.42,167.72,51.6,6.85
Zastron,1,ZA,1584293371,55,-30.3,27.08,64.56,9.62
Naryan-Mar,100,RU,1584293371,87,67.67,53.09,13.8,18.45
Kumul,18,CN,1584293109,25,42.8,93.45,38.46,2.59
Bo Phloi,42,TH,1584293372,74,14.32,99.52,78.6,2.64
Fukuechō,75,JP,1584293372,73,32.69,128.84,44.6,32.21
Biskamzha,100,RU,1584293372,98,53.45,89.53,28.2,5.23
Kudahuvadhoo,77,MV,1584293372,67,2.67,72.89,84.9,5.37
Karachi,75,PK,1584293125,38,24.91,67.08,75.2,6.93
Kargil,4,IN,1584293373,90,34.57,76.1,-2.22,4.05
Kpandu,83,GH,1584293373,51,7.0,0.29,84.36,0.11
Hofn,75,IS,1584293373,74,64.25,-15.21,28.4,5.82
Qingdao,8,CN,1584293373,40,36.1,120.37,39.99,8.95
Nefteyugansk,40,RU,1584293374,86,61.1,72.6,33.8,11.18
Pisco,77,PE,1584293343,30,-13.7,-76.22,75.0,9.17
Patitiri,75,GR,1584293374,71,39.15,23.87,51.8,23.04
Xenia,90,US,1584293333,93,39.68,-83.93,43.0,5.82
Wabash,75,US,1584293374,69,40.8,-85.82,41.0,9.17
Nanortalik,100,GL,1584293374,73,60.14,-45.24,24.78,15.64
Kings Mountain,75,US,1584293375,50,35.25,-81.34,61.0,9.17
Karaj,44,IR,1584293375,69,35.84,51.01,62.6,4.7
Faya,20,SA,1584293375,77,18.39,42.45,62.6,6.93
Morros,97,BR,1584293375,65,-9.45,-46.3,83.28,4.45
Båtsfjord,20,NO,1584293375,73,70.63,29.72,26.6,18.34
Tazovsky,100,RU,1584293329,89,67.47,78.7,-5.1,6.73
Logan,90,US,1584293367,54,41.74,-111.83,57.2,20.8
Songkhla,40,TH,1584293376,83,6.83,100.67,82.4,5.82
Meadow Lake,1,US,1584293376,28,34.8,-106.54,61.0,14.32
Bariloche,0,AR,1584293202,28,-41.15,-71.31,68.0,5.82
Kralendijk,7,BQ,1584293376,62,12.15,-68.27,84.2,12.75
Jérémie,15,HT,1584293376,64,18.65,-74.12,74.82,7.18
Hille,100,DE,1584293377,47,52.33,8.75,57.2,9.17
Hambantota,0,LK,1584293377,80,6.12,81.12,80.76,14.7
Grand Gaube,75,MU,1584293377,83,-20.01,57.66,78.8,1.12
Atbasar,100,KZ,1584293377,96,51.8,68.33,34.32,11.32
Mitsamiouli,20,KM,1584293378,79,-11.38,43.28,84.2,3.36
Khasan,0,RU,1584293378,68,42.43,130.64,24.78,9.95
Chapais,1,CA,1584293378,55,49.78,-74.85,6.8,11.41
Orán,90,AR,1584293378,85,-23.13,-64.33,80.01,1.99
Ballina,82,AU,1584293241,82,-28.87,153.57,62.6,8.05
Aginskoye,100,RU,1584293379,87,51.1,114.53,28.56,11.36
Gashua,95,NG,1584293379,9,12.87,11.05,79.68,8.72
Pathein,100,MM,1584293379,79,16.78,94.73,78.6,10.36
Nogliki,12,RU,1584293379,86,51.83,143.17,-3.84,8.52
Bubaque,100,GW,1584293380,63,11.28,-15.83,81.84,18.28
Dogondoutchi,27,NE,1584293380,10,13.64,4.03,87.06,7.45
Cheyenne,75,US,1584293090,100,41.14,-104.82,39.0,8.05
Konstanz,9,DE,1584293380,50,47.66,9.18,57.2,8.05
Bathsheba,75,BB,1584293380,70,13.22,-59.52,84.2,13.87
Tonantins,100,BR,1584293381,61,-2.87,-67.8,89.22,2.08
Trelew,5,AR,1584293381,18,-43.25,-65.31,76.08,11.03
Provost,43,CA,1584293381,90,52.35,-110.27,1.92,6.26
Chumikan,4,RU,1584293381,92,54.72,135.31,-3.3,1.45
Qaqortoq,100,GL,1584293381,42,60.72,-46.03,28.4,9.17
Bukama,62,CD,1584293381,95,-9.2,25.85,73.38,1.97
Vostok,85,RU,1584293382,96,46.49,135.88,4.8,4.12
Chengam,16,IN,1584293382,83,12.3,78.8,72.66,3.74
Toora-Khem,99,RU,1584293382,96,52.47,96.11,23.34,3.2
Black Diamond,1,US,1584293382,51,47.31,-122.0,39.99,12.75
Altay,0,CN,1584293382,38,47.87,88.12,22.8,6.15
Tshela,44,CD,1584293382,96,-4.98,12.93,75.18,3.4
Kirchberg,73,DE,1584293383,33,50.62,12.53,52.0,9.17
Constantine,75,DZ,1584293369,68,36.37,6.61,64.4,3.36
Belyy Yar,100,RU,1584293383,75,53.6,91.39,41.0,13.42
Mikuni,75,JP,1584293383,86,36.22,136.15,37.4,9.17
Vadinsk,100,RU,1584293384,95,53.69,43.06,26.22,17.31
Bridlington,87,GB,1584293384,66,54.08,-0.19,50.0,13.87
Evensk,100,RU,1584293384,93,61.95,159.23,3.0,7.72
Pitimbu,75,BR,1584293384,66,-7.47,-34.81,86.0,6.93
Amga,97,RU,1584293384,98,60.9,131.96,-3.3,3.22
Santa Cruz de La Palma,40,ES,1584293385,52,28.68,-17.76,68.0,17.22
Luanda,40,AO,1584293370,74,-8.84,13.23,84.2,14.99
Bunbury,42,AU,1584293385,72,-33.33,115.63,64.99,9.8
Shaoyang,100,CN,1584293385,63,27.23,111.45,57.9,1.88
Laguna de Duero,20,ES,1584293385,54,41.58,-4.72,61.0,18.34
Kousséri,16,CM,1584293386,11,12.08,15.03,89.6,9.17
Finote Selam,91,ET,1584293386,52,10.7,37.27,68.34,4.38
Uruçuí,59,BR,1584293386,65,-7.23,-44.56,86.52,8.46
Necochea,0,AR,1584293264,70,-38.55,-58.74,71.01,8.99
Semnan,72,IR,1584293386,48,35.57,53.4,58.44,8.05
Sălişte,0,RO,1584293386,45,45.8,23.89,43.0,4.7
Halifax,20,CA,1584293347,52,44.65,-63.57,37.99,10.29
Baki,45,ID,1584293387,90,-7.61,110.78,74.82,1.21
Port-Cartier,90,CA,1584293387,53,50.03,-66.87,24.8,8.05
Guantánamo,40,CU,1584293387,55,20.14,-75.21,86.0,21.92
Los Llanos de Aridane,40,ES,1584293387,52,28.66,-17.92,68.0,17.22
Mehtar Lām,75,AF,1584293387,77,34.67,70.21,59.0,2.77
Athens,75,GR,1584293193,67,37.98,23.72,57.2,6.93
Waipawa,50,NZ,1584293388,82,-41.41,175.52,60.8,20.8
Fort Nelson,75,CA,1584293388,52,58.81,-122.7,15.8,3.36
Amapá,88,BR,1584293388,94,1.0,-52.0,79.86,2.37
Preeceville,100,CA,1584293388,93,51.95,-102.67,12.54,6.98
Dayong,0,CN,1584293388,76,25.02,118.29,57.2,4.47
Alappuzha,2,IN,1584293389,84,9.49,76.33,78.6,2.64
Nanton,0,CA,1584293389,76,50.35,-113.77,1.0,1.01
Kalmunai,22,LK,1584293389,79,7.42,81.82,82.38,12.57
Kapit,65,MY,1584293389,98,2.02,112.93,73.2,1.34
Rampur Hat,65,IN,1584293389,64,24.17,87.78,70.68,2.46
Lorengau,100,PG,1584293389,75,-2.02,147.27,83.28,12.33
La Sarre,0,CA,1584293390,63,48.8,-79.2,14.16,3.89
Nuuk,20,GL,1584293390,71,64.18,-51.72,5.0,19.46
Yerbogachën,100,RU,1584293390,96,61.28,108.01,28.38,10.56
Kruisfontein,100,ZA,1584293390,90,-34.0,24.73,60.96,6.53
Noumea,99,NC,1584293390,94,-22.28,166.46,78.8,20.8
Tamandaré,71,BR,1584293390,74,-8.76,-35.1,83.28,11.9
Cap Malheureux,75,MU,1584293391,83,-19.98,57.61,78.8,1.12
Mareeba,27,AU,1584293391,88,-17.0,145.43,71.6,2.28
Alice Town,64,BS,1584293391,74,25.72,-79.3,74.82,11.03
Cayenne,75,GF,1584293159,62,4.93,-52.33,86.0,10.29
Güicán,79,CO,1584293391,77,6.46,-72.41,60.42,5.01
Kermanshah,40,IR,1584293391,81,34.31,47.06,48.2,4.7
Hargeisa,61,SO,1584293392,90,9.56,44.06,67.26,7.96
Cocorit,75,MX,1584293392,55,27.58,-109.97,66.2,4.7
Brigantine,90,US,1584293392,43,39.41,-74.36,53.01,9.17
Palmer,1,US,1584293392,21,42.16,-72.33,50.0,5.12
Jutaí,83,BR,1584293392,49,-5.18,-68.9,92.64,5.14
Magadan,87,RU,1584293392,91,59.57,150.8,-1.68,9.75
Bonthe,100,SL,1584293393,62,7.53,-12.51,84.72,11.99
Talaya,0,RU,1584293393,98,61.38,152.75,-17.16,2.89
Santa Maria,40,BR,1584293393,55,-29.68,-53.81,87.8,5.82
Ilo,100,PE,1584293393,85,-17.64,-71.34,73.02,9.53
Chekhov,40,RU,1584293393,73,55.14,37.47,28.0,13.42
Auki,100,SB,1584293393,74,-8.77,160.7,84.36,7.4
Tiznit Province,65,MA,1584293394,81,29.58,-9.5,52.86,7.94
Luang Prabang,26,LA,1584293394,85,19.89,102.13,68.7,1.68
Hirado,75,JP,1584293395,61,33.36,129.55,44.6,32.21
Oberá,5,AR,1584293395,20,-27.49,-55.12,101.82,3.29
Dhidhdhoo,2,MV,1584293386,72,6.88,73.1,84.0,5.84
Paraíso,20,CR,1584293395,47,9.84,-83.87,84.2,19.46
Castelbuono,40,IT,1584293395,65,37.93,14.09,59.0,2.68
Harar,75,ET,1584293396,83,9.31,42.13,64.74,1.63
Praia da Vitória,40,PT,1584293396,72,38.73,-27.07,62.6,3.53
Yudong,100,CN,1584293396,87,29.39,106.52,57.0,2.24
Desert Hot Springs,1,US,1584293396,48,33.96,-116.5,64.4,3.36
Saint-Leu,100,RE,1584293396,78,-21.15,55.28,78.8,12.75
Ransang,0,PH,1584293397,79,8.96,117.58,77.7,3.51
Northam,20,GB,1584293397,76,51.03,-4.22,48.99,6.93
Bakaly,93,RU,1584293397,94,55.18,53.8,30.9,3.76
Xining,99,CN,1584293397,83,36.62,101.77,25.86,5.5
Meulaboh,60,ID,1584293397,70,4.14,96.13,85.08,0.76
Gold Coast,24,AU,1584293398,68,-28.0,153.43,69.01,17.22
Morón,40,AR,1584293398,60,-34.65,-58.62,77.0,4.7
Tual,100,ID,1584293398,81,-5.67,132.75,79.86,12.33
Ikalamavony,44,MG,1584293398,86,-21.15,46.58,68.52,7.61
Marzuq,32,YE,1584293398,74,14.4,46.47,67.62,5.01
Honiara,75,SB,1584293399,100,-9.43,159.95,75.2,3.36
Keningau,20,MY,1584293364,88,5.34,116.16,78.8,2.24
Takāb,70,IR,1584293399,66,36.4,47.11,42.96,2.48
Brae,98,GB,1584293399,64,60.4,-1.35,39.2,18.34
Puerto Escondido,5,MX,1584293399,70,15.85,-97.07,84.2,6.93
Sobolevo,0,RU,1584293399,57,54.43,31.9,26.94,7.07
Batangafo,26,CF,1584293400,15,7.3,18.28,84.54,2.51
Talavera de la Reina,47,ES,1584293400,81,39.96,-4.83,57.72,9.66
Tineo,75,ES,1584293400,87,43.34,-6.41,46.99,14.99
Porto-Novo,20,BJ,1584293400,74,6.5,2.6,87.8,14.99
Port Keats,36,AU,1584293400,58,-14.25,129.55,80.22,7.07
Kolokani,71,ML,1584293400,7,13.57,-8.03,97.86,3.11
Waingapu,88,ID,1584293401,75,-9.66,120.26,83.64,3.98
Kholodnyy,100,RU,1584293401,99,62.72,147.95,-10.68,4.99
Belaya Gora,0,RU,1584293401,96,68.53,146.42,-26.34,1.7
Spokoynaya,100,RU,1584293401,10,44.25,41.4,30.99,11.01
Huarmey,47,PE,1584293401,46,-10.07,-78.15,85.26,11.1
Goderich,0,CA,1584293388,51,43.75,-81.72,35.01,5.99
Hurghada,0,EG,1584293402,60,27.26,33.81,73.4,3.36
Bāfq,100,IR,1584293402,37,31.61,55.41,64.2,7.72
Yumen,100,CN,1584293402,23,40.28,97.2,35.4,7.92
Vinh,100,VN,1584293403,94,18.67,105.67,67.98,1.28
Poum,100,NC,1584293403,78,-20.23,164.02,82.74,23.26
Pochutla,75,MX,1584293403,58,15.74,-96.47,90.0,9.17
Margate,75,GB,1584293288,76,51.38,1.39,53.6,17.22
Saint-Joseph,100,RE,1584293404,78,-21.37,55.62,78.8,12.75
Nador,75,MA,1584293326,77,35.17,-2.93,62.6,5.82
Cervo,86,ES,1584293404,1,43.67,-7.41,51.01,3.11
Fomboni,74,KM,1584293405,76,-12.28,43.74,84.36,11.32
Ballyshannon,20,IE,1584293405,75,54.5,-8.18,44.6,16.11
Cabra,20,ES,1584293405,49,37.47,-4.44,71.6,10.29
Victor Harbor,12,AU,1584293405,55,-35.57,138.62,63.0,5.82
Sangmélima,1,CM,1584293405,41,2.93,11.98,80.04,2.57
Brewster,1,US,1584293406,31,41.4,-73.62,51.01,11.41
Cochrane,75,CA,1584293406,64,51.18,-114.47,6.01,4.7
Gorom-Gorom,97,BF,1584293406,9,14.44,-0.24,90.48,6.24
Raudeberg,75,NO,1584293406,86,61.99,5.14,41.0,9.17
Khāsh,0,IR,1584293406,31,28.22,61.22,58.98,10.36
Tommot,100,RU,1584293164,96,58.96,126.29,11.82,1.61
Matara,1,LK,1584293407,90,5.95,80.54,75.9,6.15
Jacareacanga,100,BR,1584293407,81,-6.22,-57.75,78.6,5.3
Xingcheng,0,CN,1584293407,38,40.62,120.72,24.96,0.72
Sawtell,49,AU,1584293407,93,-30.38,153.1,61.0,13.87
Rawson,17,AR,1584293407,51,-43.3,-65.1,65.64,15.5
Emporia,90,US,1584293408,93,38.4,-96.18,37.99,10.29
Ostrovnoy,100,RU,1584293325,89,68.05,39.51,25.5,24.23
Lakes Entrance,55,AU,1584293408,94,-37.88,147.98,46.99,5.7
Kirakira,100,SB,1584293408,92,-10.45,161.92,76.62,8.23
Polyarny,100,RU,1584293408,58,69.2,33.45,26.6,4.47
Kanniyākumāri,22,IN,1584293406,69,8.08,77.57,82.92,11.16
Bulgan,90,MN,1584293409,67,48.81,103.53,23.34,7.45
San Quintín,6,MX,1584293409,66,30.48,-115.95,62.22,9.84
Imbituba,20,BR,1584293224,62,-28.24,-48.67,89.6,10.29
Miles City,90,US,1584293409,85,46.41,-105.84,19.99,14.99
Amahai,100,ID,1584293409,75,-3.33,128.92,81.48,4.65
Birobidzhan,60,RU,1584293410,78,48.8,132.95,11.82,5.39
Baiyin,100,CN,1584293410,80,36.56,104.21,37.99,2.24
Tautira,20,PF,1584293410,78,-17.73,-149.15,80.6,3.36
Ajdabiya,0,LY,1584293410,58,30.76,20.23,66.54,4.7
Vilhena,75,BR,1584293410,78,-12.74,-60.15,78.8,8.05
Juba,91,SS,1584293410,42,4.85,31.58,86.7,2.59
